,Neighbourhood Latitude,Neighbourhood Longitude,Venue,Venue Latitude,Venue Longitude,Venue Category
0,34.0301241,-118.2417786,Joker Party Supply,34.03005979,-118.2422297,Miscellaneous Shop
1,34.0301241,-118.2417786,Los Angeles Times Press Room,34.02833281,-118.2368525,Building
2,34.0301241,-118.2417786,Los Angeles Wholesale Produce Market,34.03184213,-118.2421007,Farmers Market
3,34.0301241,-118.2417786,Davalan Sales,34.030091,-118.241833,Food
4,34.0301241,-118.2417786,american celebrations party supplies,34.029739,-118.241905,Arts & Crafts Store
5,34.0301241,-118.2417786,Avina's Tacos,34.030337,-118.242077,Taco Place
6,34.0301241,-118.2417786,Metro by T-Mobile,34.031243,-118.244962,Mobile Phone Shop
7,34.0301241,-118.2417786,Cooseman’s LA,34.030306,-118.241306,Warehouse
8,34.0301241,-118.2417786,Pinata District,34.03228858,-118.2438196,General Entertainment
9,34.0301241,-118.2417786,Torn & Glasser,34.029281,-118.241504,Building
10,34.0301241,-118.2417786,Studio Servitu,34.02892501,-118.2400905,Speakeasy
11,34.0301241,-118.2417786,Better Life Organics,34.0305738,-118.241701,Building
12,34.0301241,-118.2417786,Sam's Hofbrau,34.02864538,-118.2400307,Strip Club
13,34.0301241,-118.2417786,McDonald's,34.031392,-118.2440353,Fast Food Restaurant
14,34.0301241,-118.2417786,Boost Mobile,34.032622,-118.244435,Mobile Phone Shop
15,34.0301241,-118.2417786,Parking Structure - Row DTLA,34.032882,-118.240264,Parking
16,34.0301241,-118.2417786,Cemitas Poblanas,34.03263354,-118.2438139,Food Truck
17,34.0301241,-118.2417786,Bolo,34.031889,-118.239162,Food Stand
18,34.0301241,-118.2417786,Yoshinoya,34.02816649,-118.2392535,Restaurant
19,34.0301241,-118.2417786,Red Hot Chilis,34.02914,-118.242076,Food Service
20,34.0301241,-118.2417786,Reach L.A.,34.03066629,-118.2431972,Event Space
21,34.0301241,-118.2417786,AY Customs - Technic 1200 Series Customization,34.03049469,-118.2448196,Electronics Store
22,34.0301241,-118.2417786,"Nava Produce, Co.",34.03000195,-118.243831,Farmers Market
23,34.0301241,-118.2417786,Article Indéfini,34.033372,-118.240425,Clothing Store
24,34.0301241,-118.2417786,Dream Market,34.031887,-118.24478,Liquor Store
25,34.0301241,-118.2417786,Mercado Latino Wholesale,34.03116989,-118.2435837,Farmers Market
26,34.0301241,-118.2417786,L.A. Electronics - Exotic Kreations,34.03169,-118.245561,Electronics Store
27,34.0301241,-118.2417786,kohk & sahk,34.031641,-118.239683,Food & Drink Shop
28,34.0301241,-118.2417786,800 S Central,34.032349,-118.244127,Doctor's Office
29,34.0301241,-118.2417786,pillar box Studios,34.03185747,-118.2434941,Theater
30,34.0301241,-118.2417786,Tacos El Gavilan,34.03272629,-118.2416534,Taco Place
31,34.0301241,-118.2417786,Macheen,34.031445,-118.23886,Mexican Restaurant
32,34.0301241,-118.2417786,F&M Studios,34.02873,-118.239973,Music Venue
33,34.0301241,-118.2417786,Pro DJ,34.03120724,-118.2454814,Music Store
34,34.0301241,-118.2417786,Growing Up,34.03096008,-118.2400055,Daycare
35,34.0301241,-118.2417786,General Seafood Distributor Inc.,34.028301,-118.240424,Fish Market
36,34.0301241,-118.2417786,Mega Mex,34.028447,-118.23998,Toy / Game Store
37,34.0301241,-118.2417786,Ella Moss HQ,34.03173192,-118.23879,Clothing Store
38,34.0301241,-118.2417786,Sound Factory,34.0306015,-118.2445831,Automotive Shop
39,34.0301241,-118.2417786,Morita Nut house,34.031339,-118.241317,Fruit & Vegetable Store
40,34.0301241,-118.2417786,Tesla Supercharger (ROW DTLA – Level 5),34.033207,-118.240107,EV Charging Station
41,34.0301241,-118.2417786,Navarro Party Supplies,34.031966,-118.244593,Miscellaneous Shop
42,34.0301241,-118.2417786,66-9 Colour Club,34.03094482,-118.2401276,Fish Market
43,34.0301241,-118.2417786,Dulce Mexicano,34.028792,-118.240855,Candy Store
44,34.0301241,-118.2417786,illing,34.0310173,-118.2399445,Gym Pool
45,34.0301241,-118.2417786,Allied Refrigeration,34.03120298,-118.2455385,Hardware Store
46,34.0301241,-118.2417786,Cannibal Flower,34.03004074,-118.2394333,Art Gallery
47,34.0301241,-118.2417786,Waffa Spices,34.03037262,-118.2426605,Food
48,34.0301241,-118.2417786,Umina Bros. Inc,34.0311362,-118.2417244,Fruit & Vegetable Store
49,34.0301241,-118.2417786,Rite Now,34.03092575,-118.2400665,Medical School
50,34.0301241,-118.2417786,8th Street And Alemeda,34.029909,-118.238188,Other Great Outdoors
51,34.0301241,-118.2417786,Automation Printing,34.027086,-118.240478,Office
52,34.0301241,-118.2417786,El Chido,34.031243,-118.244962,Automotive Shop
53,34.0301241,-118.2417786,Stranger Things: The Drive-Into Experience,34.033105,-118.239138,Entertainment Service
54,34.0301241,-118.2417786,Higher Learning,34.03091049,-118.2400818,College History Building
55,34.0301241,-118.2417786,Olympic Fixtures,34.02939224,-118.2397156,Miscellaneous Shop
56,34.0301241,-118.2417786,The Factor,34.028566,-118.239642,Financial or Legal Service
57,34.0301241,-118.2417786,Escamex,34.03010941,-118.2402573,Convenience Store
58,34.0301241,-118.2417786,City Ag,34.02956897,-118.240201,Building
59,34.0301241,-118.2417786,Aleman Bros,34.03048893,-118.2424197,Miscellaneous Shop
60,34.0301241,-118.2417786,Lausd - Asbestos Technical Unit,34.027666,-118.244315,Building
61,34.0301241,-118.2417786,urbn pizza,34.031651,-118.23965,Pizza Place
62,34.0301241,-118.2417786,MVMT Theory,34.034516,-118.240927,Gym / Fitness Center
63,34.0301241,-118.2417786,LA Times Olympic  Printing,34.02898788,-118.2377777,Research Station
64,34.0301241,-118.2417786,Alameda/Central,34.03181484,-118.2442879,Food Court
65,34.0301241,-118.2417786,QSI Produce,34.03017503,-118.2435055,Building
66,34.0301241,-118.2417786,Lunar Revelation 59-8,34.03095245,-118.2401199,Wings Joint
67,34.0301241,-118.2417786,save the world,34.03096008,-118.2399979,College Football Field
68,34.0301241,-118.2417786,Art + Beat,34.03122711,-118.2400742,Medical School
69,34.0301241,-118.2417786,Jello &  Living Colour 73-10,34.03096008,-118.2400055,Garden
70,34.0301241,-118.2417786,Kickin' Back,34.03105164,-118.2399063,Resort
71,34.0301241,-118.2417786,G.M. Case Appoint,34.03119417,-118.2402105,Building
72,34.0301241,-118.2417786,Alameda Music,34.029398,-118.239672,Office
73,34.0301241,-118.2417786,Knice Clothing,34.027364,-118.240786,Men's Store
74,34.0301241,-118.2417786,TNT Locksmith,34.031966,-118.244593,Locksmith
75,34.0301241,-118.2417786,Tacos Chemos taco Truck,34.0290063,-118.2406559,Taco Place
76,34.0301241,-118.2417786,studio42,34.02796193,-118.2392621,Water Park
77,34.0301241,-118.2417786,Dj,34.032153,-118.246694,Nightlife Spot
78,34.0301241,-118.2417786,Yaris Produce,34.04765701,-118.2714233,Food
79,34.0301241,-118.2417786,BraveStar Club,34.03102493,-118.240036,Karaoke Bar
80,34.0301241,-118.2417786,Pacific Giant,34.03318024,-118.2376328,Seafood Restaurant
81,34.0301241,-118.2417786,Ugly Drum,34.032899,-118.239774,Food Stand
82,34.0301241,-118.2417786,West Coast Sales Distributors,34.031282,-118.243275,Food
83,34.0301241,-118.2417786,Qsi,34.030548,-118.243473,Food
84,34.0301241,-118.2417786,El Mexicano Produce,34.03004074,-118.2394333,Food
85,34.0301241,-118.2417786,Model Writing Zone,34.03124237,-118.2398682,Karaoke Bar
86,34.0301241,-118.2417786,Villegas Produce,34.03031158,-118.2373505,Deli / Bodega
87,34.0301241,-118.2417786,Scum Dungeon,34.02731139,-118.2409977,Design Studio
88,34.0301241,-118.2417786,East 10th Street Market,34.03191376,-118.2447968,Liquor Store
89,34.0301241,-118.2417786,GoJane HQ,34.03316767,-118.2421521,Office
90,34.00184246,-118.2211268,Farmer John,34.00666279,-118.2174916,Building
91,34.00184246,-118.2211268,BNB Glass vases,34.002118,-118.220157,Flower Shop
92,34.00184246,-118.2211268,Fashion Nova Warehouse,34.002277,-118.21843,Warehouse
93,34.00184246,-118.2211268,Villa Latina,34.00034,-118.219238,Nightclub
94,34.00184246,-118.2211268,Overhill Farms,34.006217,-118.223931,Building
95,34.00184246,-118.2211268,ARCO,34.0058403,-118.220108,Gas Station
96,34.00184246,-118.2211268,ampm,34.005932,-118.220293,Convenience Store
97,34.00184246,-118.2211268,Tuxedo LA - Warehouse Film Location,33.99822,-118.2273,Film Studio
98,34.00184246,-118.2211268,EMJ,33.991246,-118.225648,Factory
99,34.00184246,-118.2211268,GT's Kombucha,34.001057,-118.226717,Building
100,34.00184246,-118.2211268,Great American Packaging,34.0044,-118.219854,Building
101,34.00184246,-118.2211268,Tadashi Shoji Studio,34.00365551,-118.2149425,Coworking Space
102,34.00184246,-118.2211268,Millenium Knitting,34.00175,-118.221311,Office
103,34.00184246,-118.2211268,Stacy Medical Center,34.002043,-118.224909,Doctor's Office
104,34.00184246,-118.2211268,C.R. Laurence,34.00597155,-118.2268756,Hardware Store
105,34.00184246,-118.2211268,Dollhalla,34.00196838,-118.2235413,Athletics & Sports
106,34.00184246,-118.2211268,Whole Foods Market Southern Pacific Distribution Center,33.99884,-118.224309,Warehouse
107,34.00184246,-118.2211268,Four Seasons,34.006086,-118.222027,Building
108,34.00184246,-118.2211268,US Post Office,33.9964766,-118.2270887,Post Office
109,34.00184246,-118.2211268,New Zealand Seafoods,34.005284,-118.213485,Seafood Restaurant
110,34.00184246,-118.2211268,Colony Products,33.99997,-118.217951,Food
111,34.00184246,-118.2211268,Westside Patients Collective,34.018718,-118.23253,Pharmacy
112,34.00184246,-118.2211268,Herve Leger by Max Azria,34.083206,-118.37338,Boutique
113,34.00184246,-118.2211268,farmer john mural art,34.00612434,-118.2196676,Farm
114,34.00184246,-118.2211268,Concentra Urgent Care,34.0070845,-118.2200874,Medical Center
115,34.00184246,-118.2211268,McDonald's,34.0084247,-118.2201788,Fast Food Restaurant
116,34.00184246,-118.2211268,A Place to Waste 8 Hours,33.99722627,-118.2204672,Office
117,34.00184246,-118.2211268,Pacifica Foods,34.003461,-118.184644,Office
118,34.00184246,-118.2211268,Hocean Food Corp.,33.99938595,-118.2275892,Coworking Space
119,34.00184246,-118.2211268,WJL Distributors Wearhouse,34.00335259,-118.2161722,Building
120,34.00184246,-118.2211268,Plates & Beyond,34.002509,-118.213724,Building
121,34.00184246,-118.2211268,Pabco Paper pro,34.002881,-118.228592,Paper / Office Supplies Store
122,34.00184246,-118.2211268,F. Gavina and Sons,33.99516,-118.222905,Coffee Shop
123,34.00184246,-118.2211268,Melissa's Produce,33.99474994,-118.220861,Warehouse
124,34.00184246,-118.2211268,Indi Ev,33.997967,-118.219712,Business Center
125,34.00184246,-118.2211268,Gavina Gourmet Coffee,33.99674249,-118.2211583,Office
126,34.00184246,-118.2211268,coast packing co,34.00547409,-118.2162018,Factory
127,34.00184246,-118.2211268,Atlas Aluminum,34.0026371,-118.2210155,Factory
128,34.00184246,-118.2211268,Azazel,34.001659,-118.224912,Building
129,34.00184246,-118.2211268,Salon Gloria,34.00349045,-118.2421494,General Entertainment
130,34.00184246,-118.2211268,On Twelfth,33.999681,-118.222862,Women's Store
131,34.00184246,-118.2211268,S&S Auto Transmissions,34.002755,-118.219692,Automotive Shop
132,34.00184246,-118.2211268,Aircraft X-Ray,33.995202,-118.224809,Building
133,34.00184246,-118.2211268,U.S. Health Works,34.00715637,-118.2208328,Medical Center
134,34.00184246,-118.2211268,Flores Design Inc.,34.00127802,-118.22509,Furniture / Home Store
135,34.00184246,-118.2211268,Nima Wholesale,34.00542913,-118.2229688,Building
136,34.00184246,-118.2211268,Camino Real,34.004853,-118.225102,Distribution Center
137,34.00184246,-118.2211268,OKK Trading,34.003863,-118.221053,Building
138,34.00184246,-118.2211268,Selectra Industries,33.997403,-118.226608,Building
139,34.00184246,-118.2211268,Monique Lhullier Sampe Sale Line,34.00355,-118.227066,Pop-Up Shop
140,34.00184246,-118.2211268,Best Buy Produce,34.003722,-118.216883,Electronics Store
141,34.00184246,-118.2211268,Vernon Check Cashing,34.00725174,-118.2208023,Bank
142,34.00184246,-118.2211268,Tonys Party Supplies,33.99817431,-118.2255846,Arts & Crafts Store
143,34.00184246,-118.2211268,Hudson Sample Sale,34.0080719,-118.2247314,Women's Store
144,34.00184246,-118.2211268,Alberts Organic,34.00530758,-118.2151253,Grocery Store
145,34.00184246,-118.2211268,The Fruit Man,33.99817162,-118.2239455,Food Truck
146,34.00184246,-118.2211268,Owens Illinois Glass Plant,33.996927,-118.218384,Professional & Other Places
147,34.00184246,-118.2211268,Union Ice Company,33.997669,-118.215838,Rental Service
148,34.00184246,-118.2211268,Best Oriental,34.000441,-118.216706,Building
149,34.00184246,-118.2211268,PWP Industries Plant,34.00745524,-118.2231474,Building
150,34.00184246,-118.2211268,BCBG Soto Bldg,33.99628963,-118.2228203,Office
151,34.00184246,-118.2211268,produce land,34.00025177,-118.2156372,Building
152,34.00184246,-118.2211268,Qwikway Trucking Company,33.99916178,-118.2160408,Building
153,34.00184246,-118.2211268,MeatCo Provisions Inc.,33.999171,-118.213796,Office
154,34.00184246,-118.2211268,California Specialty,34.001088,-118.225807,Miscellaneous Shop
155,34.00184246,-118.2211268,Vernon Yard-Metro,34.00390839,-118.2268582,Bus Line
156,34.00184246,-118.2211268,Vacant Factory,34.001383,-118.210982,Factory
157,34.00184246,-118.2211268,Tool And Abrasive Supply,33.999792,-118.217165,Building
158,34.00184246,-118.2211268,Edison Fruitland Substation,33.996966,-118.221289,Building
159,34.00184246,-118.2211268,Specialty Meats Inc.,34.004208,-118.21863,Office
160,34.00184246,-118.2211268,Atlas galvanizing,34.00035,-118.22402,Factory
161,34.00184246,-118.2211268,Littlejohn-Reuland Corp,34.002336,-118.226121,Building
162,34.00184246,-118.2211268,Growers #7,34.004218,-118.217299,Factory
163,34.00184246,-118.2211268,Pactiv - Vernon,34.007346,-118.22398,Factory
164,34.00184246,-118.2211268,metal improvement,34.002572,-118.209556,Factory
165,34.00184246,-118.2211268,Patterson J Kincaid,33.996187,-118.21987,Factory
166,34.00184246,-118.2211268,Real Mex Foods,34.006057,-118.214331,Office
167,34.00184246,-118.2211268,Second Generation,34.004519,-118.228695,Office
168,34.00184246,-118.2211268,Maronie Mia,34.000533,-118.225632,Factory
169,34.00184246,-118.2211268,Millenium Products,33.999992,-118.22648,Factory
170,34.00184246,-118.2211268,Last Kings Corporate Office,33.99993591,-118.2233458,Factory
171,34.00184246,-118.2211268,Civilianaire HQ,33.99883,-118.227263,Factory
172,34.00184246,-118.2211268,BCBG Pacific Parking,33.99666252,-118.2213754,Parking
173,34.00184246,-118.2211268,Crystal Promotions,34.005893,-118.220373,Office
174,34.00184246,-118.2211268,Paper Source Converting,34.000498,-118.229557,Building
175,34.04602247,-118.2462496,Downtown Fashion Walk,34.04608016,-118.2473487,Flea Market
176,34.04602247,-118.2462496,Ross Dress for Less,34.04597456,-118.2468796,Clothing Store
177,34.04602247,-118.2462496,Dr. Shigematsu,34.04579468,-118.2462009,Doctor's Office
178,34.04602247,-118.2462496,Los Angeles Mission,34.04520229,-118.2448965,Church
179,34.04602247,-118.2462496,King Eddy Saloon,34.04620716,-118.2476421,Bar
180,34.04602247,-118.2462496,Manning Center Haircut Counter,34.046044,-118.246193,Salon / Barbershop
181,34.04602247,-118.2462496,Intern's Command Center,34.04587979,-118.2462409,College Classroom
182,34.04602247,-118.2462496,Cafe Manning,34.045988,-118.246168,Gastropub
183,34.04602247,-118.2462496,CMC Conference Room,34.04607,-118.245997,Event Space
184,34.04602247,-118.2462496,LASH,34.04729534,-118.2473502,Cocktail Bar
185,34.04602247,-118.2462496,St Vincent De Paul Cardinal Manning Center,34.046138,-118.245939,Building
186,34.04602247,-118.2462496,Subway,34.04693947,-118.2470048,Sandwich Place
187,34.04602247,-118.2462496,Baltimore Hotel,34.04596,-118.248019,Residential Building (Apartment / Condo)
188,34.04602247,-118.2462496,Mikie's Craft Inc,34.046038,-118.246404,Arts & Crafts Store
189,34.04602247,-118.2462496,464,34.0468898,-118.2468862,American Restaurant
190,34.04602247,-118.2462496,These Days,34.04707597,-118.2473487,Art Gallery
191,34.04602247,-118.2462496,Central Cellular,34.0457077,-118.2483902,Electronics Store
192,34.04602247,-118.2462496,Metro by T-Mobile,34.04610756,-118.2471875,Mobile Phone Shop
193,34.04602247,-118.2462496,Innerspace Los Angeles,34.047437,-118.247413,Event Space
194,34.04602247,-118.2462496,The Row,34.04549627,-118.24551,Church
195,34.04602247,-118.2462496,SP+ Parking,34.0439372,-118.2481876,Parking
196,34.04602247,-118.2462496,Party World,34.046154,-118.244607,Miscellaneous Shop
197,34.04602247,-118.2462496,King Edwards,34.046396,-118.247737,Hotel
198,34.04602247,-118.2462496,The Jefferies,34.047175,-118.247112,Residential Building (Apartment / Condo)
199,34.04602247,-118.2462496,Audrey Hepburn Love Mural,34.046805,-118.246996,Street Art
200,34.04602247,-118.2462496,118 Winston,34.046878,-118.247461,Art Gallery
201,34.04602247,-118.2462496,AT&T U-verse,34.04544236,-118.2478706,Business Service
202,34.04602247,-118.2462496,Cafe Caracas,34.04554749,-118.2462082,Restaurant
203,34.04602247,-118.2462496,Andrew Brown Building,34.04478588,-118.2459749,Art Gallery
204,34.04602247,-118.2462496,Green Apple Market,34.044626,-118.245743,Convenience Store
205,34.04602247,-118.2462496,David's Bicycle Locker,34.046128,-118.246129,Athletics & Sports
206,34.04602247,-118.2462496,Old Bank Beehive,34.047557,-118.246463,Other Great Outdoors
207,34.04602247,-118.2462496,Free STD Clinics,34.04562759,-118.2445755,Medical Center
208,34.04602247,-118.2462496,Crown Top Import & Wholesale,34.04542923,-118.2457581,Miscellaneous Shop
209,34.04602247,-118.2462496,Winston Plaza,34.046375,-118.245743,Market
210,34.04602247,-118.2462496,Lokal Sandwich Shop,34.046781,-118.248224,Sandwich Place
211,34.04602247,-118.2462496,San Fernando Building Lofts,34.047822,-118.2472632,Residential Building (Apartment / Condo)
212,34.04602247,-118.2462496,Lazy Brewing Company,34.046109,-118.248098,Coffee Shop
213,34.04602247,-118.2462496,Strada Eateria & Coffee,34.046396,-118.247737,Restaurant
214,34.04602247,-118.2462496,The Tappan Collective,34.047183,-118.247147,Art Gallery
215,34.04602247,-118.2462496,Public Parking Structure,34.042887,-118.248219,Parking
216,34.04602247,-118.2462496,Hookah Place LA,34.04615982,-118.2478086,Hookah Bar
217,34.04602247,-118.2462496,Sushi Zo,34.04814776,-118.247188,Sushi Restaurant
218,34.04602247,-118.2462496,Volunteers Of America,34.04662336,-118.2466349,Office
219,34.04602247,-118.2462496,"Dr. Lorenzo Morales, MD",34.046261,-118.246131,Doctor's Office
220,34.04602247,-118.2462496,The Order Dtla Tattoo Parlor,34.046102,-118.247825,Tattoo Parlor
221,34.04602247,-118.2462496,The Paradise Imports,34.04556656,-118.247345,Perfume Shop
222,34.04602247,-118.2462496,Mexican Yarn And Thread,34.04677191,-118.2469376,Flea Market
223,34.04602247,-118.2462496,Metro Bus - 16/27/18/53/720 Rapid (S Los Angeles St & E 5th St),34.046559,-118.247987,Bus Stop
224,34.04602247,-118.2462496,Rosslyn Hotel,34.04676,-118.248958,Boarding House
225,34.04602247,-118.2462496,Top Zone,34.04542923,-118.2457581,Accessories Store
226,34.04602247,-118.2462496,kian's flowers,34.045681,-118.2453308,Garden Center
227,34.04602247,-118.2462496,Ghostbusters,34.04515839,-118.2459564,Monument / Landmark
228,34.04602247,-118.2462496,Wholesale Store,34.04682456,-118.2454414,Clothing Store
229,34.04602247,-118.2462496,Panama Hotel,34.044875,-118.244584,Hotel
230,34.04602247,-118.2462496,Downtown Mental Health Clinic,34.0448494,-118.2475815,Mental Health Office
231,34.04602247,-118.2462496,New Genesis Housing Project,34.046785,-118.247986,Residential Building (Apartment / Condo)
232,34.04602247,-118.2462496,Blacksmiths,34.04709633,-118.2472387,New American Restaurant
233,34.04602247,-118.2462496,Kinnex Interational INC importer & wholesale,34.04695,-118.246938,Shop & Service
234,34.04602247,-118.2462496,Sunpoint,34.04718399,-118.2465973,Department Store
235,34.04602247,-118.2462496,LOVE IT UP,34.04497203,-118.245647,Bookstore
236,34.04602247,-118.2462496,Crimson Unicorn Tattoo,34.04613804,-118.2477142,Tattoo Parlor
237,34.04602247,-118.2462496,E-Game For Less,34.04556656,-118.247345,Video Game Store
238,34.04602247,-118.2462496,Kody Trading,34.046283,-118.245665,Gift Shop
239,34.04602247,-118.2462496,Friday Cellular Accessories,34.04730308,-118.2462288,Electronics Store
240,34.04602247,-118.2462496,Sakura Crossing Pool,34.0458653,-118.2462867,Residential Building (Apartment / Condo)
241,34.04602247,-118.2462496,Apple Cafe,34.046733,-118.247196,Sandwich Place
242,34.04602247,-118.2462496,Phil's Freeze,34.0454571,-118.2458058,Steakhouse
243,34.04602247,-118.2462496,downtown loft training,34.04709625,-118.2486725,Gym / Fitness Center
244,34.04602247,-118.2462496,Indian Alley,34.046785,-118.247791,Historic Site
245,34.04602247,-118.2462496,new pershing square apts,34.04668538,-118.2481882,Housing Development
246,34.04602247,-118.2462496,GTA Video Games Inc,34.04578,-118.24795,Video Game Store
247,34.04602247,-118.2462496,Brick Downtown LA,34.04825974,-118.246521,Gym
248,34.04602247,-118.2462496,TJ's,34.04629778,-118.2442022,Residential Building (Apartment / Condo)
249,34.04602247,-118.2462496,NYG Toys,34.046691,-118.244665,Toy / Game Store
250,34.04602247,-118.2462496,Toys.accessories,34.04692841,-118.2446823,Toy / Game Store
251,34.04602247,-118.2462496,Shrine Tattoo,34.04814148,-118.2475967,Tattoo Parlor
252,34.04602247,-118.2462496,Bridal Rings Company,34.047728,-118.246319,Jewelry Store
253,34.04602247,-118.2462496,OnSomeShit,34.046396,-118.247737,Bike Shop
254,34.04602247,-118.2462496,We Are Massiv.,34.046109,-118.248098,Clothing Store
255,34.04602247,-118.2462496,IWONDEROUTLET,34.04532242,-118.2487411,Toy / Game Store
256,34.04602247,-118.2462496,Yaali After Hours,34.046521,-118.246886,Other Nightlife
257,34.04602247,-118.2462496,Wall Street Wholesale,34.04737115,-118.2471639,Smoke Shop
258,34.04602247,-118.2462496,LA City EMD,34.049791,-118.235233,Fire Station
259,34.04602247,-118.2462496,3 Double Deuce Studio,34.0466742,-118.2464865,Design Studio
260,34.02833396,-118.2850766,USC Neighborhood Academic Initiative,34.024895,-118.284334,Student Center
261,34.02833396,-118.2850766,Raymond James,34.02843319,-118.2852566,Financial or Legal Service
262,34.02833396,-118.2850766,Tri Chi,34.02864,-118.285505,Sorority House
263,34.02833396,-118.2850766,Spudnuts Donuts,34.025729,-118.285055,Bagel Shop
264,34.02833396,-118.2850766,CorePower Yoga,34.0257974,-118.2848217,Yoga Studio
265,34.02833396,-118.2850766,Trader Joe's,34.02559483,-118.2845858,Grocery Store
266,34.02833396,-118.2850766,Wendy Nails,34.02870241,-118.2836809,Cosmetics Shop
267,34.02833396,-118.2850766,"MBDA Business Center, USC University of Southern California",34.029175,-118.284261,Non-Profit
268,34.02833396,-118.2850766,Village Lawn,34.026245,-118.28547,Field
269,34.02833396,-118.2850766,Study Hall,34.02855429,-118.284304,Gastropub
270,34.02833396,-118.2850766,Phi Sigma Kappa,34.028521,-118.283567,Fraternity House
271,34.02833396,-118.2850766,The Two,34.028103,-118.285337,Residential Building (Apartment / Condo)
272,34.02833396,-118.2850766,Chill Sesh 203,34.02711456,-118.2827845,Speakeasy
273,34.02833396,-118.2850766,Taste Of The Islands,34.02657197,-118.284599,Caribbean Restaurant
274,34.02833396,-118.2850766,Kappa Kappa Gamma,34.02878727,-118.2829521,Sorority House
275,34.02833396,-118.2850766,Senator Apartments (SNA),34.029526,-118.284302,College Residence Hall
276,34.02833396,-118.2850766,HoodiiHooville,34.028099,-118.286372,Other Nightlife
277,34.02833396,-118.2850766,Art of Living Studio,34.03061161,-118.2837868,Yoga Studio
278,34.02833396,-118.2850766,Holiday Inn,34.02970583,-118.2844117,Hotel
279,34.02833396,-118.2850766,Berry Best Yogurt,34.025729,-118.285055,Dessert Shop
280,34.02833396,-118.2850766,Coinstar,34.02621841,-118.2841187,Bank
281,34.02833396,-118.2850766,Utan,34.029475,-118.285257,Miscellaneous Shop
282,34.02833396,-118.2850766,Cento Headquaters,34.028695,-118.285496,Accessories Store
283,34.02833396,-118.2850766,Tri Delta,34.027926,-118.282381,Sorority House
284,34.02833396,-118.2850766,Bel-Air Apartments (BAA),34.028103,-118.284718,College Residence Hall
285,34.02833396,-118.2850766,Trojan Palms,34.027691,-118.287011,Residential Building (Apartment / Condo)
286,34.02833396,-118.2850766,Kappa Sigma,34.02846712,-118.2831745,Fraternity House
287,34.02833396,-118.2850766,Louie Locksmith,34.02756056,-118.2875746,Hardware Store
288,34.02833396,-118.2850766,Menlo house,34.02985488,-118.2857591,Cemetery
289,34.02833396,-118.2850766,Mi Camita,34.029225,-118.285783,Other Nightlife
290,34.02833396,-118.2850766,Launderland,34.025729,-118.285055,Laundry Service
291,34.02833396,-118.2850766,The Mirage,34.02747696,-118.2830389,College Residence Hall
292,34.02833396,-118.2850766,Alpha Epsilon Pi,34.02813,-118.282794,Fraternity House
293,34.02833396,-118.2850766,Phi Delt Basketball Court,34.029221,-118.2835405,Basketball Court
294,34.02833396,-118.2850766,Regent Apartments (RGA),34.028105,-118.284964,College Residence Hall
295,34.02833396,-118.2850766,Cardinal Gardens CSC Laundry Room,34.02804518,-118.2875974,Laundry Service
296,34.02833396,-118.2850766,Zeta Beta Tau,34.02844468,-118.2836474,Fraternity House
297,34.02833396,-118.2850766,Chateau Row Rooftop,34.028701,-118.284356,Residential Building (Apartment / Condo)
298,34.02833396,-118.2850766,The Saloon,34.02788471,-118.2862558,Fraternity House
299,34.02833396,-118.2850766,Los Angeles Institute of Religion,34.02752686,-118.2850189,General College & University
300,34.02833396,-118.2850766,Traveler Manor,34.02857496,-118.286112,Residential Building (Apartment / Condo)
301,34.02833396,-118.2850766,Chateau,34.02881191,-118.2841805,Residential Building (Apartment / Condo)
302,34.02833396,-118.2850766,Amazebowls,34.0259639,-118.284269,Food Truck
303,34.02833396,-118.2850766,Elias's Room,34.028386,-118.283631,College Residence Hall
304,34.02833396,-118.2850766,Windsor Apartments (WIN),34.029653,-118.285353,College Residence Hall
305,34.02833396,-118.2850766,The Peach,34.02814601,-118.286918,Residential Building (Apartment / Condo)
306,34.02833396,-118.2850766,USC Musical Theatre Class,34.02685942,-118.2843432,College Classroom
307,34.02833396,-118.2850766,The Death Star,34.027788,-118.284282,Arcade
308,34.02833396,-118.2850766,Shack Attack,34.028568,-118.285889,Speakeasy
309,34.02833396,-118.2850766,TheShack,34.028804,-118.28549,Lounge
310,34.02833396,-118.2850766,Dr. Kravitz Optometrist,34.025729,-118.285055,Doctor's Office
311,34.02833396,-118.2850766,McAlister Soccer Field,34.027036,-118.283589,Field
312,34.02833396,-118.2850766,Helena Apartments (HAP),34.029076,-118.287158,Residential Building (Apartment / Condo)
313,34.02833396,-118.2850766,Derrick's Jamaican Cuisine,34.02658307,-118.28454,Caribbean Restaurant
314,34.02833396,-118.2850766,Kappa Alpha Order,34.02947551,-118.2833498,Fraternity House
315,34.02833396,-118.2850766,Delta Chi USC Fraternity - Tatooine,34.028234,-118.282987,Fraternity House
316,34.02833396,-118.2850766,The Quidd Frat,34.02715683,-118.2868271,Fraternity House
317,34.02833396,-118.2850766,3DumbHo,34.02759,-118.283078,Wine Bar
318,34.02833396,-118.2850766,Theta Chi,34.029488,-118.283353,Fraternity House
319,34.02833396,-118.2850766,Shacktastic,34.028515,-118.285827,Karaoke Bar
320,34.02833396,-118.2850766,The Kappa Senior Tea Room formerly known as the Shack,34.02862285,-118.2860046,Tea Room
321,34.02833396,-118.2850766,Village Mailbox,34.025729,-118.285055,Post Office
322,34.02833396,-118.2850766,Soy,34.029225,-118.285783,Japanese Restaurant
323,34.02833396,-118.2850766,The Cake Shop,34.02678771,-118.2832984,Bakery
324,34.02833396,-118.2850766,Senior Shach,34.028683,-118.285957,Nightclub
325,34.02833396,-118.2850766,USC Center For Occupations And Lifestyle Redesign,34.030515,-118.284329,Building
326,34.02833396,-118.2850766,flagship theatres,34.02786524,-118.2826247,Movie Theater
327,34.02833396,-118.2850766,Número 5 Holla,34.02965586,-118.2838579,Housing Development
328,34.02833396,-118.2850766,The SoCal VoCal House,34.030037,-118.285638,Speakeasy
329,34.02833396,-118.2850766,Hensel Haeuse,34.02825383,-118.2830814,Historic Site
330,34.02833396,-118.2850766,Sigma Chi Fraternity - University of Southern California,34.02856719,-118.2822167,Fraternity House
331,34.02833396,-118.2850766,Phi Delt Upper Annex,34.029305,-118.283343,Lounge
332,34.02833396,-118.2850766,PSK Kitchen,34.02852631,-118.2834244,Greek Restaurant
333,34.02833396,-118.2850766,Cardinal Gardens CSC,34.026609,-118.287466,College Residence Hall
334,34.02833396,-118.2850766,Cardinal Gardens D1 Buildin,34.02658133,-118.2874234,College Residence Hall
335,34.02833396,-118.2850766,1230 W 29th street,34.02969784,-118.2834011,Residential Building (Apartment / Condo)
336,34.02833396,-118.2850766,Terrace Apartments (TSA),34.02852651,-118.2883051,College Residence Hall
337,34.02833396,-118.2850766,Sierra Apartments (SIE),34.02961937,-118.2828411,College Residence Hall
338,34.02833396,-118.2850766,Property Mangement Associates,34.02641109,-118.2837951,Office
339,34.02833396,-118.2850766,FARBTHEBEARJEWS room,34.0281,-118.28229,Residential Building (Apartment / Condo)
340,34.02833396,-118.2850766,USC Office of Communication Solutions,34.02594479,-118.285342,General College & University
341,34.02833396,-118.2850766,Terra Gloria,34.027532,-118.287463,Resort
342,34.02833396,-118.2850766,Fairmont Apartments (FMT),34.030183,-118.283044,College Residence Hall
343,34.02833396,-118.2850766,1/2 an& Half,34.02652024,-118.2871521,Residential Building (Apartment / Condo)
344,34.02833396,-118.2850766,Chabad House,34.029075,-118.282033,Student Center
345,34.00349356,-118.287097,7-Eleven,34.00337288,-118.2866728,Convenience Store
346,34.00349356,-118.287097,Laundry Mat,34.003459,-118.286393,Laundry Service
347,34.00349356,-118.287097,Sugar Donut & $1 Chinese Food,34.00384903,-118.2875595,Chinese Restaurant
348,34.00349356,-118.287097,Marguerite Poindexter Lamotte Elementary,34.00320816,-118.2888489,Elementary School
349,34.00349356,-118.287097,Eric's Burgers,34.004028,-118.287593,Food
350,34.00349356,-118.287097,Boost  Mobile,34.0033311,-118.286704,Mobile Phone Shop
351,34.00349356,-118.287097,hvm market,34.00395491,-118.2874833,Candy Store
352,34.00349356,-118.287097,Tam's Burger,34.00403136,-118.287626,Burger Joint
353,34.00349356,-118.287097,Metro by T-Mobile,34.0051413,-118.2832829,Mobile Phone Shop
354,34.00349356,-118.287097,Family Dollar,34.00266647,-118.2870865,Discount Store
355,34.00349356,-118.287097,Alpha Video,34.00381721,-118.2876032,Video Store
356,34.00349356,-118.287097,H&R Block,34.00341797,-118.2866364,Financial or Legal Service
357,34.00349356,-118.287097,centro latino market,34.00217056,-118.2868805,Butcher
358,34.00349356,-118.287097,Wells Fargo ATM,34.00407107,-118.2923725,ATM
359,34.00349356,-118.287097,Los Angeles Black Worker Center,33.979397,-118.292114,Building
360,34.00349356,-118.287097,Vermont City Lights,34.00479113,-118.2859361,Housing Development
361,34.00349356,-118.287097,Burger King,34.00342402,-118.2823786,Fast Food Restaurant
362,34.00349356,-118.287097,Shell,34.00345997,-118.283089,Gas Station
363,34.00349356,-118.287097,Ross Dress for Less,34.00453445,-118.2820432,Clothing Store
364,34.00349356,-118.287097,Rite Aid,34.004942,-118.2820282,Pharmacy
365,34.00349356,-118.287097,Tacos Los Carnales,34.00398866,-118.2817911,Food Truck
366,34.00349356,-118.287097,Jack in the Box,34.00434123,-118.2829982,Fast Food Restaurant
367,34.00349356,-118.287097,Ericks Used Cars,34.007127,-118.291145,Auto Dealership
368,34.00349356,-118.287097,Luis Market,34.00614,-118.292059,Butcher
369,34.00349356,-118.287097,24Hrs. Laundry Mat,34.00417477,-118.2819567,Laundry Service
370,34.00349356,-118.287097,Park Lane Cleaners,34.00614,-118.292059,Laundry Service
371,34.00349356,-118.287097,Vernon Family Dental,34.0035,-118.290741,Dentist's Office
372,34.00349356,-118.287097,Jr.'s Tattoo,34.003151,-118.28701,Tattoo Parlor
373,34.00349356,-118.287097,LA Eye Clinic,34.00353312,-118.2918158,Doctor's Office
374,34.00349356,-118.287097,Numero Uno Market,34.003943,-118.292074,Grocery Store
375,34.00349356,-118.287097,Twc Hub Hoover,34.004275,-118.286776,Office
376,34.00349356,-118.287097,Luz Beauty Salon,34.003122,-118.286927,Salon / Barbershop
377,34.00349356,-118.287097,Tong's Tropical Fish & Pets,34.004838,-118.292196,Pet Store
378,34.00349356,-118.287097,Metro by T-Mobile,34.003831,-118.291209,Mobile Phone Shop
379,34.00349356,-118.287097,76,34.004025,-118.283118,Gas Station
380,34.00349356,-118.287097,Nayarit Tires & Mufflers,34.00362396,-118.2892456,Automotive Shop
381,34.00349356,-118.287097,Westland Car Wash @ Vermont,34.00572205,-118.2911911,Car Wash
382,34.00349356,-118.287097,Big O Liquors,34.00083,-118.291287,Wine Bar
383,34.00349356,-118.287097,Vernon Convalescent Hospital,34.00376227,-118.292827,Hospital
384,34.00349356,-118.287097,LA Metro 754 Southbound Vermont And Vernon Bus Stop,34.00361327,-118.2915025,Bus Line
385,34.00349356,-118.287097,Yougurtland ( University Gateway ),34.00145706,-118.2822364,Frozen Yogurt Shop
386,34.00349356,-118.287097,Meow,33.99949421,-118.2851824,Miscellaneous Shop
387,34.00349356,-118.287097,Smoke Shop Center,34.00471878,-118.2917404,Smoke Shop
388,34.00349356,-118.287097,The Riot Motor Club,33.998841,-118.290973,Motorsports Shop
389,34.00349356,-118.287097,C & L Market,33.99995126,-118.2905319,Miscellaneous Shop
390,34.00349356,-118.287097,Reggie's Liquor and Jr Mkt,34.003056,-118.282425,Wine Bar
391,34.00349356,-118.287097,Saharra Inn,34.002442,-118.291862,Building
392,34.00349356,-118.287097,Wine Barrel Liquor,34.006024,-118.286854,Building
393,34.00349356,-118.287097,The Sugar Donut Ice Cream,34.004028,-118.287593,Chinese Restaurant
394,34.00349356,-118.287097,Haze Muzik Studio,34.003914,-118.2913506,Music Venue
395,34.00349356,-118.287097,Figueroa & Vernon Orangeman,34.00376638,-118.2827845,Grocery Store
396,34.00349356,-118.287097,Xel-Ja,34.00614,-118.292059,Mexican Restaurant
397,34.00349356,-118.287097,Tacos Vernon,34.003309,-118.282925,Mexican Restaurant
398,34.00349356,-118.287097,sishouse,34.00393647,-118.2854108,Residential Building (Apartment / Condo)
399,34.00349356,-118.287097,Chrouse,34.003935,-118.285383,Building
400,34.00349356,-118.287097,Santa Rosa Restaurant,34.005146,-118.29181,Salvadoran Restaurant
401,34.00349356,-118.287097,Vernon Bargain Center,34.00446,-118.292416,Convenience Store
402,34.00349356,-118.287097,Jerry's Liquor,34.00552528,-118.2915764,Liquor Store
403,34.00349356,-118.287097,Julian C. Dixon Park,33.9990262,-118.2869637,Park
404,34.00349356,-118.287097,Clinic de los angeles,34.00501,-118.28314,Doctor's Office
405,34.00349356,-118.287097,J's 98¢ Discount Store,34.00260676,-118.2915424,Shop & Service
406,34.00349356,-118.287097,Q West,34.00715033,-118.2903207,Pharmacy
407,34.00349356,-118.287097,Clinica De Los Angeles,34.00489807,-118.2831421,Doctor's Office
408,34.00349356,-118.287097,Bank of America,34.006513,-118.282502,Bank
409,34.00349356,-118.287097,Clean King Coin Laundry,34.005012,-118.291983,Laundromat
410,34.00349356,-118.287097,Tires And Wheels Repair,34.007324,-118.286976,Automotive Shop
411,34.00349356,-118.287097,All You Can INK Tattoos,34.005881,-118.292005,Tattoo Parlor
412,34.00349356,-118.287097,Los Angeles Eye Center and Clinic,34.003427,-118.291819,Eye Doctor
413,34.00349356,-118.287097,Lafd Fire Station 46,34.00156803,-118.287803,Fire Station
414,34.00349356,-118.287097,BG Tobacco,34.00553131,-118.2869415,Miscellaneous Shop
415,34.00349356,-118.287097,Daze Hood Shack,34.00494,-118.286089,Other Nightlife
416,34.00349356,-118.287097,Mount Moriah Baptist Church,34.00571442,-118.2831726,Church
417,34.00349356,-118.287097,Expo Park at La Coliseum,34.002058,-118.2818967,Music Venue
418,34.00349356,-118.287097,Bethany Missionary Baptist Church,33.998193,-118.283232,Church
419,34.00349356,-118.287097,Royal Inn,34.006002,-118.291338,Hotel
420,34.00349356,-118.287097,EAT Catering Kitchen,34.00003305,-118.291294,Building
421,34.00349356,-118.287097,Umbrella Tax Services,34.00855,-118.287432,Building
422,34.00349356,-118.287097,Sunny Swapmeet,34.00704485,-118.2902351,Miscellaneous Shop
423,34.00349356,-118.287097,Clean Car Wash Campaign,34.00365229,-118.2835812,Campaign Office
424,34.00349356,-118.287097,Alffin Recycling Center II,34.00028641,-118.2915995,Recycling Facility
425,34.00349356,-118.287097,All Seas Fish Market,34.0049,-118.291323,Fast Food Restaurant
426,34.00349356,-118.287097,Less For Smokes,34.00475,-118.283008,Smoke Shop
427,34.00349356,-118.287097,Vermont square shoe repair,34.004838,-118.292196,Miscellaneous Shop
428,34.00349356,-118.287097,J Fin's,34.00191311,-118.2860788,Professional & Other Places
429,34.00349356,-118.287097,Flower's Garden,34.00009268,-118.290589,Beer Garden
430,34.00349356,-118.287097,Registration Services An More,34.006783,-118.291343,Office
431,34.00349356,-118.287097,Arias Furniture,34.003462,-118.291218,Furniture / Home Store
432,34.00349356,-118.287097,Ten Beautiful Nails,34.005012,-118.283195,Spa
433,34.00349356,-118.287097,John's Appliances,34.005169,-118.291329,Miscellaneous Shop
434,34.00349356,-118.287097,Ramadan Imports,34.00474167,-118.2829132,Miscellaneous Shop
435,34.05230101,-118.2633863,Starbucks,34.05208,-118.26327,Coffee Shop
436,34.05230101,-118.2633863,1100 Wilshire Tower,34.05228145,-118.2636296,Residential Building (Apartment / Condo)
437,34.05230101,-118.2633863,1100 Wilshire Gym,34.05242144,-118.2636745,Gym
438,34.05230101,-118.2633863,It’s Thai,34.051869,-118.262937,Thai Restaurant
439,34.05230101,-118.2633863,Kachi Deli Cafe & Grill,34.0522308,-118.2632061,Café
440,34.05230101,-118.2633863,1100 Wilshire Pool,34.05218,-118.263866,Pool
441,34.05230101,-118.2633863,Express Deli,34.052548,-118.26272,Deli / Bodega
442,34.05230101,-118.2633863,TOGO'S Sandwiches,34.052709,-118.263272,Sandwich Place
443,34.05230101,-118.2633863,Hollywood,34.05297052,-118.2621897,Other Great Outdoors
444,34.05230101,-118.2633863,Chase Bank,34.0523603,-118.2637635,Bank
445,34.05230101,-118.2633863,1111 Wilshire,34.0526907,-118.263466,Residential Building (Apartment / Condo)
446,34.05230101,-118.2633863,City of Angels Dentistry,34.05293765,-118.2640735,Dentist's Office
447,34.05230101,-118.2633863,Good Samaritan Medical Tower,34.05295192,-118.26427,Medical Center
448,34.05230101,-118.2633863,Brasil Kiss Coffee Bar,34.05164466,-118.2622345,Café
449,34.05230101,-118.2633863,Pacific Premier Commerce Escrow,34.05236608,-118.2628334,Real Estate Office
450,34.05230101,-118.2633863,1100 Wilshire Us Storage,34.05222,-118.26379,Storage Facility
451,34.05230101,-118.2633863,The Thunderdome,34.05218506,-118.2638931,Performing Arts Venue
452,34.05230101,-118.2633863,TENTEN Wilshire | 1010 Wilshire,34.05244608,-118.2633591,Residential Building (Apartment / Condo)
453,34.05230101,-118.2633863,Dr. Stephen Kurumada D.D.S.,34.053157,-118.263814,Dentist's Office
454,34.05230101,-118.2633863,Bloom Glam La,34.05294,-118.263725,Salon / Barbershop
455,34.05230101,-118.2633863,Quest Diagnostics,34.053157,-118.263814,Medical Lab
456,34.05230101,-118.2633863,Ebaes,34.052926,-118.26437,Ramen Restaurant
457,34.05230101,-118.2633863,Green Life Market,34.051802,-118.263003,Grocery Store
458,34.05230101,-118.2633863,Samaritan Dental Arts,34.0529543,-118.2641629,Dentist's Office
459,34.05230101,-118.2633863,Bixel Underground,34.05538559,-118.2618713,Nightclub
460,34.05230101,-118.2633863,Laser Eye Center,34.0529761,-118.2640223,Doctor's Office
461,34.05230101,-118.2633863,Los Angeles County Arts Commission,34.05226034,-118.2630748,Government Building
462,34.05230101,-118.2633863,Great Steak & Potato Co,34.05218216,-118.2630957,Sandwich Place
463,34.05230101,-118.2633863,APLA Dental Clinic,34.05304939,-118.263977,Dentist's Office
464,34.05230101,-118.2633863,LA Style House,34.05147557,-118.2629663,Boutique
465,34.05230101,-118.2633863,Glo Apartments,34.0517463,-118.2635744,Residential Building (Apartment / Condo)
466,34.05230101,-118.2633863,USC Fertility,34.053157,-118.263814,Doctor's Office
467,34.05230101,-118.2633863,"Silva A. Arejian, DDS",34.0531932,-118.2638542,Dentist's Office
468,34.05230101,-118.2633863,United Medical Imaging,34.052748,-118.263937,Mental Health Office
469,34.05230101,-118.2633863,Samaritan Tower Parking Garage,34.05290767,-118.2640463,Parking
470,34.05230101,-118.2633863,"Karen Kim, MD, PC",34.0527932,-118.263996,Doctor's Office
471,34.05230101,-118.2633863,Norman Schall & Associates,34.052548,-118.26272,Office
472,34.05230101,-118.2633863,Retina vitreous,34.053409,-118.263587,Eye Doctor
473,34.05230101,-118.2633863,USC Perinatal,34.053095,-118.263943,Doctor's Office
474,34.05230101,-118.2633863,LACBA,34.05149735,-118.2628069,Office
475,34.05230101,-118.2633863,1055 Wilshire Blvd Bldg,34.05273864,-118.2628749,Building
476,34.05230101,-118.2633863,DTLA Derm,34.05288,-118.2637,Doctor's Office
477,34.05230101,-118.2633863,PACE LA Business Development Center,34.05233941,-118.2629943,Non-Profit
478,34.05230101,-118.2633863,City of Hope Development Center,34.052548,-118.26272,Office
479,34.05230101,-118.2633863,PACE Early Head Start Headquarters,34.05242153,-118.2630462,Coworking Space
480,34.05230101,-118.2633863,1100 Wilshire Parking Garage,34.05201119,-118.2631581,Parking
481,34.05230101,-118.2633863,Jennifer Hertz M D,34.05258,-118.26322,Medical Center
482,34.05230101,-118.2633863,Third Estate Media,34.05255864,-118.2635202,Office
483,34.05230101,-118.2633863,Columbia Printing,34.05234626,-118.2633888,Building
484,34.05230101,-118.2633863,BRTHL,34.05214385,-118.2627368,Clothing Store
485,34.05230101,-118.2633863,Girardi | Keese,34.05279,-118.26441,Lawyer
486,34.05230101,-118.2633863,Nouveau Studios,34.05163744,-118.2627892,Tech Startup
487,34.05230101,-118.2633863,California CadioVascular Institute,34.05218506,-118.2638931,Doctor's Office
488,34.05230101,-118.2633863,Tokyo Kitchen,34.05244508,-118.2632719,Sushi Restaurant
489,34.05230101,-118.2633863,Eastbound & Down,34.05186363,-118.2631376,College Science Building
490,34.05230101,-118.2633863,Esthetic Dentistry,34.05199814,-118.2631226,Dentist's Office
491,34.05230101,-118.2633863,Dr. James Lee,34.05241885,-118.2641654,Dentist's Office
492,34.05230101,-118.2633863,420 Studios Inc,34.05197029,-118.2632461,Office
493,34.05230101,-118.2633863,Los Angeles Companion Services Maxim Healthcare Services,34.05265942,-118.2643676,Medical Center
494,34.05230101,-118.2633863,Pharmacy Good Sam Medical Bldg 2nd Fl,34.053002,-118.264221,Doctor's Office
495,34.05230101,-118.2633863,Dr David Cedeno,34.052583,-118.263747,Dentist's Office
496,34.05230101,-118.2633863,Law Office Of Alvin Sherron,34.05208364,-118.2626979,Lawyer
497,34.05230101,-118.2633863,Taste Bistro Cafe,34.05280698,-118.2639084,Restaurant
498,34.05230101,-118.2633863,"Constancia Angeles, DMD",34.05303152,-118.2634574,Dentist's Office
499,34.05230101,-118.2633863,Glo Get Em,34.05120353,-118.2632004,Residential Building (Apartment / Condo)
500,34.05230101,-118.2633863,Glo Wilshire Gym,34.05139271,-118.2631729,Gym
501,34.05230101,-118.2633863,CrossFit H&H,34.10268021,-118.338028,Athletics & Sports
502,34.05230101,-118.2633863,دوانية بنات USC,34.051227,-118.263219,Cosmetics Shop
503,34.05230101,-118.2633863,Dr David Boyer,34.05287276,-118.2643032,Doctor's Office
504,34.05230101,-118.2633863,Dr. Reaves,34.05268585,-118.2643139,Optical Shop
505,34.05230101,-118.2633863,sol silberstein,34.052661,-118.264035,Doctor's Office
506,34.05230101,-118.2633863,Spatula City,34.05187319,-118.2642225,Hardware Store
507,34.05230101,-118.2633863,"John Kowalczyk, M.D.",34.05283356,-118.2641373,Doctor's Office
508,34.05230101,-118.2633863,Urban life cleaners,34.051372,-118.263201,Laundry Service
509,34.05230101,-118.2633863,Dr.Lem,34.053088,-118.264197,Doctor's Office
510,34.05230101,-118.2633863,Dr. Adelaida T. Quinco D.D.S.,34.053157,-118.263814,Dentist's Office
511,34.05230101,-118.2633863,"Joan Otomo-Corgel, DDS, MPH, FACD",34.05278748,-118.2639784,Dentist's Office
512,34.05230101,-118.2633863,Tenten salon & spa,34.05229113,-118.2624867,Arcade
513,34.05230101,-118.2633863,Girardi Keese,34.0525481,-118.264334,Office
514,34.05230101,-118.2633863,Joe's Auto Park,34.05151613,-118.2638913,Parking
515,34.05230101,-118.2633863,Good Samaritan Med Bldg Property Mgmt,34.05306057,-118.2643024,Building
516,34.05230101,-118.2633863,Riveting Entertainment,34.05196607,-118.2628012,General Entertainment
517,34.05230101,-118.2633863,Securitas Security Services USA,34.052548,-118.26272,Business Service
518,34.05230101,-118.2633863,Downtown News,34.05199505,-118.2630063,Office
519,34.05230101,-118.2633863,MPP - Conference Room 24A,34.05232589,-118.263189,Conference Room
520,34.05230101,-118.2633863,Law Offices of Woods & Yoo,34.053128,-118.262447,Lawyer
521,34.05230101,-118.2633863,"Bawn Media Group, Inc",34.05289841,-118.2634735,General Entertainment
522,34.05230101,-118.2633863,Engage: Arts Marketing & Social Media Workshop at LACAC,34.05289218,-118.2632861,Non-Profit
523,34.05230101,-118.2633863,TMC Development,34.052386,-118.262461,Office
524,34.05230101,-118.2633863,Bawn Oasis,34.052614,-118.263872,Residential Building (Apartment / Condo)
525,34.05230101,-118.2633863,Venskus & Associates,34.052176,-118.262462,Office
526,34.05230101,-118.2633863,BlueGlass LA Headquarters,34.05190385,-118.2627583,Tech Startup
527,34.05230101,-118.2633863,itennis Los Angeles,34.05209573,-118.2625095,Tennis Court
528,34.05230101,-118.2633863,Fresh Market,34.05176544,-118.2624283,Deli / Bodega
529,33.95386056,-118.291946,La Casa Honduras Restaurant,33.953587,-118.292112,Food
530,33.95386056,-118.291946,Dave's Liquors,33.951688,-118.292095,Wine Bar
531,33.95386056,-118.291946,Sunnyside Baptist Church,33.95133213,-118.2961273,Church
532,33.95386056,-118.291946,Tacos Habanero Oaxaca,33.94762039,-118.2912598,Taco Place
533,33.95386056,-118.291946,Family Dollar,33.9498,-118.2913,Discount Store
534,33.95386056,-118.291946,Metro by T-Mobile,33.96030353,-118.2889886,Mobile Phone Shop
535,33.95386056,-118.291946,Metro by T-Mobile,33.94850536,-118.2921026,Mobile Phone Shop
536,33.95386056,-118.291946,Cell City Solutions,33.9520582,-118.2920607,Mobile Phone Shop
537,33.95386056,-118.291946,HCC #2,33.952076,-118.291363,Pharmacy
538,33.95386056,-118.291946,Lily's Market,33.953906,-118.291254,Market
539,33.95386056,-118.291946,9228  S Vermont Ave,33.952076,-118.291363,Market
540,33.95386056,-118.291946,Gethsemine Church,33.95168,-118.291291,Church
541,33.95386056,-118.291946,Manchester Manor,33.96008742,-118.288117,Medical Center
542,33.95386056,-118.291946,The Salvation Army Family Store & Donation Center,33.95983747,-118.2920424,Thrift / Vintage Store
543,33.95386056,-118.291946,Domino's Pizza,33.95968196,-118.2906371,Pizza Place
544,33.95386056,-118.291946,Children's Institute,33.93988037,-118.2922821,Preschool
545,33.95386056,-118.291946,KFC,33.95976838,-118.2954634,Fried Chicken Joint
546,33.95386056,-118.291946,Pizza Hut,33.945787,-118.292271,Pizza Place
547,33.95386056,-118.291946,Charlie Brown Tobacco & Mini Mart,33.95541,-118.2923508,Smoke Shop
548,33.95386056,-118.291946,Lozano Tires,33.95489883,-118.2911835,Automotive Shop
549,33.95386056,-118.291946,El Takitaco,33.95864666,-118.2977081,Food Truck
550,33.95386056,-118.291946,Manchester Caregivers,33.960393,-118.301381,Smoke Shop
551,33.95386056,-118.291946,vhc,33.95849286,-118.2914796,Alternative Healer
552,33.95386056,-118.291946,Royal's Burger Grill,33.95488981,-118.2911924,Burger Joint
553,33.95386056,-118.291946,The Hoodz Barbershop,33.94809723,-118.2910919,Cosmetics Shop
554,33.95386056,-118.291946,Authentic Dance Company,33.95541,-118.2923508,Building
555,33.95386056,-118.291946,Penny Mini Mart,33.956548,-118.292162,Market
556,33.95386056,-118.291946,Rev. Lucious Jackson Fellowship Hall,33.954619,-118.291241,Restaurant
557,33.95386056,-118.291946,Craig's Barber Shop,33.958472,-118.291383,Cosmetics Shop
558,33.95386056,-118.291946,hair shop,33.95500002,-118.2967718,Salon / Barbershop
559,33.95386056,-118.291946,AAA - Automobile Club of Southern California,33.947976,-118.292111,Insurance Office
560,33.95386056,-118.291946,Cazal Auto,33.948825,-118.286744,Automotive Shop
561,33.95386056,-118.291946,Money Mart,33.95956039,-118.2912292,Bank
562,33.95386056,-118.291946,ONE WAY Hydraulics,33.949906,-118.286983,Automotive Shop
563,33.95386056,-118.291946,Chavito's Glass,33.959765,-118.288563,Hardware Store
564,33.95386056,-118.291946,M.A.R Auto Care Center,33.95018387,-118.2919464,Automotive Shop
565,33.95386056,-118.291946,Drop Ink Tattoo,33.953978,-118.296195,Tattoo Parlor
566,33.95386056,-118.291946,no color lines barber shop,33.95880127,-118.2911987,Salon / Barbershop
567,33.95386056,-118.291946,Reyes Automotive Customs Inc.,33.960263,-118.293473,Automotive Shop
568,33.95386056,-118.291946,New Fashion Wig,33.960392,-118.291841,Cosmetics Shop
569,33.95386056,-118.291946,Coin-op laundry,33.95163353,-118.2867616,Laundry Service
570,33.95386056,-118.291946,ACE Express Car Wash,33.960421,-118.294259,Car Wash
571,33.95386056,-118.291946,Manchester car wash,33.960279,-118.294572,Car Wash
572,33.95386056,-118.291946,Nail trap,33.95973,-118.2911,Nail Salon
573,33.95386056,-118.291946,Vivian Hair Stylist,33.951999,-118.290112,Residential Building (Apartment / Condo)
574,33.95386056,-118.291946,More 4 Less,33.960241,-118.292148,Department Store
575,33.95386056,-118.291946,Pet Shop,33.96020158,-118.2915025,Pet Store
576,33.95386056,-118.291946,Community Eye Center,33.96124015,-118.2910286,Optical Shop
577,33.95386056,-118.291946,Monster Burger,33.956766,-118.292071,Burger Joint
578,33.95386056,-118.291946,Alberto's Fine Arts Furniture,33.94936919,-118.2915367,Furniture / Home Store
579,33.95386056,-118.291946,9 Fo Lounge,33.95141355,-118.2985244,Professional & Other Places
580,33.95386056,-118.291946,Monarch Liquor Store,33.957732,-118.292125,Market
581,33.95386056,-118.291946,Century Market And Tobacco,33.946181,-118.300071,Smoke Shop
582,33.95386056,-118.291946,Lil Avery Market,33.956274,-118.292338,Market
583,33.95386056,-118.291946,Louie's Market,33.953495,-118.295709,Market
584,33.95386056,-118.291946,Manchester Fish,33.96043396,-118.2937241,Fish & Chips Shop
585,33.95386056,-118.291946,Dodgers Dream Field @ Algin Sutton Rec. Ctr.,33.957242,-118.286425,Baseball Field
586,33.95386056,-118.291946,KIPP Academy (Vermont),33.94601822,-118.2911911,School
587,33.95386056,-118.291946,Community Build Youth And Community Center,33.958356,-118.291232,Building
588,33.95386056,-118.291946,danny J BAKEWELL Primary School Y,33.95939255,-118.2895508,Elementary School
589,33.95386056,-118.291946,MISLA Media,33.959639,-118.294203,Tech Startup
590,33.95386056,-118.291946,greater mt olive,33.94939041,-118.2867661,Building
591,33.95386056,-118.291946,mgh corporation,33.94881058,-118.2883682,Moving Target
592,33.95386056,-118.291946,Meneses Mexico,33.948778,-118.287897,Garden
593,33.95386056,-118.291946,Club Exedus,33.95611954,-118.2922363,Nightclub
594,33.95386056,-118.291946,Juicy Burger Restaurant,33.9526329,-118.2868347,Burger Joint
595,33.95386056,-118.291946,99¢ stuff and thangs,33.94899317,-118.2913084,Convenience Store
596,33.95386056,-118.291946,manchester and vermont,33.95743803,-118.2904463,General Travel
597,33.95386056,-118.291946,95th Street Preparatory School,33.949212,-118.294083,Elementary School
598,33.95386056,-118.291946,Afterhours,33.94927547,-118.2983703,Nightclub
599,33.95386056,-118.291946,Salon Padilla,33.94943,-118.287997,Nightclub
600,33.95386056,-118.291946,St. John Institutional Missionary Baptist Church,33.95456314,-118.2912064,Church
601,33.95386056,-118.291946,Juan 3:16,33.94866666,-118.2912684,Church
602,33.95386056,-118.291946,Divine Direction Community Church,33.94954586,-118.2867239,Church
603,33.95386056,-118.291946,Black Castle,33.96046066,-118.2886887,Rock Club
604,33.95386056,-118.291946,Dock And Carry Seafood Market,33.94715566,-118.2878544,Seafood Restaurant
605,33.95386056,-118.291946,metro line 442,33.95714629,-118.2941286,Moving Target
606,33.95386056,-118.291946,Family Market,33.947362,-118.29219,Market
607,33.95386056,-118.291946,#1 chinese food (Vermont And Manchester),33.95952956,-118.2911371,Chinese Restaurant
608,33.95386056,-118.291946,Taco Bell,33.945233,-118.293682,Fast Food Restaurant
609,33.95386056,-118.291946,OG Top Shop,33.957176,-118.291231,Marijuana Dispensary
610,33.95386056,-118.291946,Winston Mortuary,33.949528,-118.292333,Funeral Home
611,33.95386056,-118.291946,Vox Collegiate Charter School,33.959805,-118.29408,School
612,33.95386056,-118.291946,Rita Walters Learning Center,33.96029028,-118.2904349,High School
613,33.95386056,-118.291946,Universal College Of Beauty,33.95946561,-118.2922504,Trade School
614,33.95386056,-118.291946,T & M Market And Tobacco,33.9421,-118.291378,Market
615,33.95386056,-118.291946,Bret Harte Middle School,33.95163572,-118.2867027,Middle School
616,33.95386056,-118.291946,JS Liquor & Jr Market,33.94575882,-118.2922897,Convenience Store
617,33.95386056,-118.291946,Prince Hall Grand Lodge,33.95463943,-118.2830048,Event Space
618,33.95386056,-118.291946,US Market,33.94524002,-118.2920685,Market
619,34.05010243,-118.292689,Prayer Closet,34.050279,-118.292961,Church
620,34.05010243,-118.292689,Hugh Spa,34.05060379,-118.2920641,Spa
621,34.05010243,-118.292689,El Turco Meat Market,34.05038761,-118.2920049,Butcher
622,34.05010243,-118.292689,Wi Korean BBQ,34.05046844,-118.2920837,Korean BBQ Restaurant
623,34.05010243,-118.292689,Subway,34.05025543,-118.2919465,Sandwich Place
624,34.05010243,-118.292689,World 8,34.0510341,-118.2917683,Video Game Store
625,34.05010243,-118.292689,Fantastic Donuts and Croissant,34.05031427,-118.2918455,Donut Shop
626,34.05010243,-118.292689,Koryo Health Foundation,34.051166,-118.291433,Doctor's Office
627,34.05010243,-118.292689,Monseñor oscar Romero Charter School,34.050055,-118.294419,School
628,34.05010243,-118.292689,LAPD - Olympic Division,34.05023266,-118.2911468,Police Station
629,34.05010243,-118.292689,Bora beauty salon,34.050576,-118.292185,Spa
630,34.05010243,-118.292689,Market World,34.05209995,-118.2932323,Grocery Store
631,34.05010243,-118.292689,Bank of America,34.04808439,-118.2914263,Bank
632,34.05010243,-118.292689,Palace Beauty - 한남체인,34.0521658,-118.293439,Cosmetics Shop
633,34.05010243,-118.292689,Berendo Villa Apartments,34.051937,-118.294021,Residential Building (Apartment / Condo)
634,34.05010243,-118.292689,Tom N Toms Coffee,34.052225,-118.292546,Coffee Shop
635,34.05010243,-118.292689,Berendo Middle School,34.04955548,-118.2940316,General College & University
636,34.05010243,-118.292689,76,34.05233632,-118.2914253,Gas Station
637,34.05010243,-118.292689,Sally Beauty,34.047819,-118.291205,Cosmetics Shop
638,34.05010243,-118.292689,AutoZone,34.0478387,-118.2913005,Automotive Shop
639,34.05010243,-118.292689,76,34.047367,-118.29173,Gas Station
640,34.05010243,-118.292689,Lee Orthopedic Institute,34.051767,-118.292025,Doctor's Office
641,34.05010243,-118.292689,Berendo Middle School,34.04926459,-118.2944483,College Classroom
642,34.05010243,-118.292689,Han Nam Video,34.052255,-118.292286,Video Store
643,34.05010243,-118.292689,Jihwaja Korean Rice Bakery,34.052115,-118.292051,Korean Restaurant
644,34.05010243,-118.292689,한남체인 Hannam Chain Supermarket,34.05193231,-118.2931864,Grocery Store
645,34.05010243,-118.292689,United Oil,34.047521,-118.29186,Gas Station
646,34.05010243,-118.292689,T-Mobile,34.052194,-118.29206,Mobile Phone Shop
647,34.05010243,-118.292689,420 Evaluations - Medical Marijuana Card (MMJ),34.04976171,-118.2920024,Marijuana Dispensary
648,34.05010243,-118.292689,Lee's Discount Drugs 리스약국,34.05232,-118.293441,Pharmacy
649,34.05010243,-118.292689,Bebinca Shaved Snow,34.052115,-118.292051,Dessert Shop
650,34.05010243,-118.292689,Magi's Beauty Salon,34.04998779,-118.2919998,Cosmetics Shop
651,34.05010243,-118.292689,I Love Boba (Vermont & Olympic),34.05207507,-118.2916245,Coffee Shop
652,34.05010243,-118.292689,Hera Permanent Make-Up,34.052108,-118.29023,Health & Beauty Service
653,34.05010243,-118.292689,Hong Kong Ban Jum,34.05225657,-118.2924312,Korean Restaurant
654,34.05010243,-118.292689,Jang Choong Dong JokBal,34.052255,-118.292286,Korean Restaurant
655,34.05010243,-118.292689,Tous Les Jours,34.05229824,-118.2931114,Bakery
656,34.05010243,-118.292689,Korea Town Gateway,34.05279,-118.292115,Other Great Outdoors
657,34.05010243,-118.292689,Metro Bus 754,34.05232453,-118.2915424,Bus Line
658,34.05010243,-118.292689,Sytk Sullungtang 송영 통큰 설렁탕,34.052776,-118.29292,Korean Restaurant
659,34.05010243,-118.292689,Min Sok Chon,34.05208206,-118.2920303,Bakery
660,34.05010243,-118.292689,Cyberzone,34.052115,-118.292051,Arts & Entertainment
661,34.05010243,-118.292689,Olympic / Vermont Bus Stop,34.05226059,-118.2915681,Bus Station
662,34.05010243,-118.292689,Cleopatra Skincare,34.052205,-118.290692,Spa
663,34.05010243,-118.292689,M & C Upholstery Supply,34.047498,-118.293397,Hardware Store
664,34.05010243,-118.292689,J Plaza,34.052303,-118.292385,Shopping Plaza
665,34.05010243,-118.292689,Bank of Hope,34.052921,-118.293098,Bank
666,34.05010243,-118.292689,Nara Plaza,34.052748,-118.293503,Plaza
667,34.05010243,-118.292689,Mandarin Garden Restaurant,34.05209142,-118.2917904,Chinese Restaurant
668,34.05010243,-118.292689,Jangchungdong Pork Feet,34.06645954,-118.3095763,Korean Restaurant
669,34.05010243,-118.292689,Allstate Insurance: John Han,34.049895,-118.29201,Insurance Office
670,34.05010243,-118.292689,Hodori,34.05247585,-118.291819,Korean Restaurant
671,34.05010243,-118.292689,Moo Kung Wha Beauty Salon,34.05204907,-118.2918393,Building
672,34.05010243,-118.292689,Bank Of America Vermont And Pico,34.04821,-118.291699,Bank
673,34.05010243,-118.292689,Metro Bus - 204/754 (Olympic Blvd & S Vermont Ave),34.052276,-118.291541,Bus Stop
674,34.05010243,-118.292689,V.I.P. Seafood & Poultry Market,34.056579,-118.291861,Butcher
675,34.05010243,-118.292689,Smoky Tango,33.934496,-118.292391,Gift Shop
676,34.05010243,-118.292689,Zero Ping Cyber E-Sports Lan Center,34.05208206,-118.2920303,Gaming Cafe
677,34.05010243,-118.292689,ITC Electronics,34.05235,-118.294126,Electronics Store
678,34.05010243,-118.292689,BofA,34.04810715,-118.2914276,Bank
679,34.05010243,-118.292689,Vienna Coffee,34.05237961,-118.2922134,Café
680,34.05010243,-118.292689,Gold Plaza,34.04741789,-118.2917765,Plaza
681,34.05010243,-118.292689,Catalina St.,34.05185858,-118.2951105,Residential Building (Apartment / Condo)
682,34.05010243,-118.292689,Yanusa Sushi,34.052018,-118.29343,Sushi Restaurant
683,34.05010243,-118.292689,Daniel D. Lee MD,34.051689,-118.292031,Doctor's Office
684,34.05010243,-118.292689,Club Mirage,34.049257,-118.291863,Nightlife Spot
685,34.05010243,-118.292689,west pico alterations,34.046976,-118.29682,Tailor Shop
686,34.05010243,-118.292689,Metro Bus 728,34.05266537,-118.2936376,Moving Target
687,34.05010243,-118.292689,Win Golf,34.052108,-118.29023,Golf Course
688,34.05010243,-118.292689,Metro stop #140963,34.04761995,-118.291531,Bus Stop
689,34.05010243,-118.292689,New Seoul Hotel Coffee House,34.05198981,-118.2904748,Café
690,34.05010243,-118.292689,Good Rehab Therapy Clinic,34.05280093,-118.2929697,Medical Center
691,34.05010243,-118.292689,NicaMex Tax Services,34.046275,-118.291307,Office
692,34.05010243,-118.292689,오누리 쇼핑,34.05049133,-118.291748,Miscellaneous Shop
693,34.05010243,-118.292689,Mirak 2,34.05052914,-118.2920734,Korean Restaurant
694,34.05010243,-118.292689,seeday hearing aid,34.051166,-118.291433,Other Repair Shop
695,34.05010243,-118.292689,zumba fitness,34.0486196,-118.2903036,Gym
696,34.05010243,-118.292689,Healing Art Nail Salon 2666 W. Olympic Blvd.,34.05218343,-118.2907203,Nail Salon
697,34.05010243,-118.292689,Rio Vista Liquors,34.0528183,-118.2928009,Wine Bar
698,34.05010243,-118.292689,www.HarloweApparel.com,34.05245508,-118.2909144,Clothing Store
699,34.05010243,-118.292689,Kwon's Barber Shop,34.05235744,-118.2925073,Salon / Barbershop
700,34.05010243,-118.292689,Pilgrim Tower,34.048838,-118.291918,Building
701,34.05010243,-118.292689,Peking Dumpling,34.052772,-118.293288,Food
702,34.05010243,-118.292689,POCHA KOREA dba PUB POCHA,34.05046844,-118.2920837,Bar
703,33.94895071,-118.2469796,St. Lawrence Church Of Brindisi,33.944552,-118.245657,Church
704,33.94895071,-118.2469796,96th street elementary school,33.95087399,-118.2478798,Elementary School
705,33.94895071,-118.2469796,Metro Rail - Firestone Station (A),33.96001115,-118.2432086,Light Rail Station
706,33.94895071,-118.2469796,Mt. Beulah Missionary Baptist Church,33.945858,-118.248955,Church
707,33.94895071,-118.2469796,CVS pharmacy,33.9444915,-118.2447802,Pharmacy
708,33.94895071,-118.2469796,Metro by T-Mobile,33.944762,-118.244458,Mobile Phone Shop
709,33.94895071,-118.2469796,Cricket Wireless Authorized Retailer,33.943924,-118.245521,Mobile Phone Shop
710,33.94895071,-118.2469796,T-Mobile,33.94397385,-118.2454107,Mobile Phone Shop
711,33.94895071,-118.2469796,Domino's Pizza,33.94376922,-118.2543999,Pizza Place
712,33.94895071,-118.2469796,Baskin-Robbins,33.94417539,-118.2451519,Ice Cream Shop
713,33.94895071,-118.2469796,Free STD Clinics,33.942702,-118.245335,Medical Center
714,33.94895071,-118.2469796,Los Angeles Public Library - Alma Reaves Woods - Watts,33.94383895,-118.2465839,Library
715,33.94895071,-118.2469796,Bank of America,33.942483,-118.253706,Bank
716,33.94895071,-118.2469796,Mt. Rose Baptist Church,33.95553,-118.247656,Vineyard
717,33.94895071,-118.2469796,Food 4 Less,33.9446608,-118.2439218,Grocery Store
718,33.94895071,-118.2469796,Martin Luther King Jr Shopping Center,33.94476754,-118.2447027,Miscellaneous Shop
719,33.94895071,-118.2469796,Burger King,33.94354463,-118.2437447,Fast Food Restaurant
720,33.94895071,-118.2469796,SUBWAY,33.9435088,-118.2446499,Sandwich Place
721,33.94895071,-118.2469796,Rainbow Shops,33.944762,-118.244458,Women's Store
722,33.94895071,-118.2469796,Nix Neighborhood Lending,33.9454918,-118.2544403,Bank
723,33.94895071,-118.2469796,Jack in the Box,33.9429756,-118.2544593,Fast Food Restaurant
724,33.94895071,-118.2469796,Tacos Mexico Long Beach Blvd South Gate Californi,33.95107526,-118.2379947,Taco Place
725,33.94895071,-118.2469796,Zugo,33.94328967,-118.2503125,Food Truck
726,33.94895071,-118.2469796,CCS Title Loan Services - LoanMart Hacienda Village,33.94358063,-118.2439423,Financial or Legal Service
727,33.94895071,-118.2469796,Popeyes Louisiana Kitchen,33.94351159,-118.2447144,Fried Chicken Joint
728,33.94895071,-118.2469796,Ted Watkins Memorial Park,33.94386752,-118.2520941,Basketball Court
729,33.94895071,-118.2469796,96th St & Firth Blvd,33.949181,-118.247709,General Travel
730,33.94895071,-118.2469796,Western Union,33.943854,-118.244322,Bank
731,33.94895071,-118.2469796,Citibank,33.94392014,-118.24543,Bank
732,33.94895071,-118.2469796,ANGELS BRIDAL,33.94124603,-118.2418671,Bridal Shop
733,33.94895071,-118.2469796,Redbox,33.94349289,-118.2446518,Video Store
734,33.94895071,-118.2469796,South La Beauty Supply,33.943924,-118.245521,Cosmetics Shop
735,33.94895071,-118.2469796,Bebop Watts,33.94949234,-118.254087,Field
736,33.94895071,-118.2469796,Tacos Avalos,33.94509,-118.246356,Taco Place
737,33.94895071,-118.2469796,Mufundi Theater,33.94348,-118.239858,Indie Theater
738,33.94895071,-118.2469796,Markham Middle School,33.94288023,-118.2406512,Middle School
739,33.94895071,-118.2469796,Central City Market,33.943443,-118.2541,Convenience Store
740,33.94895071,-118.2469796,El Ranchito Market,33.95303726,-118.2469864,Miscellaneous Shop
741,33.94895071,-118.2469796,Driving Ms.Daisy,33.95278099,-118.24089,General Travel
742,33.94895071,-118.2469796,College Bridge Academy,33.94347763,-118.2398682,High School
743,33.94895071,-118.2469796,"Watts Healthcare Corporation, Watts Health Center",33.94275857,-118.245572,Hospital
744,33.94895071,-118.2469796,Metro Rail - 103rd Street/Watts Towers Station (A),33.9425945,-118.2432532,Light Rail Station
745,33.94895071,-118.2469796,Reggie's Liquor and Jr Market,33.94586563,-118.2537994,Wine Bar
746,33.94895071,-118.2469796,Baca Arts Academy,33.955943,-118.246604,School
747,33.94895071,-118.2469796,Little Caesars Pizza,33.943924,-118.245521,Pizza Place
748,33.94895071,-118.2469796,Hayes Tabernacle CME,33.9444874,-118.2545153,Church
749,33.94895071,-118.2469796,The Taco Truck,33.94332389,-118.2458868,Taco Place
750,33.94895071,-118.2469796,YO! Watts Center: Curiot x Nosego mural,33.94357951,-118.2466121,Art Gallery
751,33.94895071,-118.2469796,Hope Central Watts,33.94062855,-118.2430315,Church
752,33.94895071,-118.2469796,Auto Zone,33.945227,-118.254369,Automotive Shop
753,33.94895071,-118.2469796,Danny's Transmissions,33.957497,-118.247547,Automotive Shop
754,33.94895071,-118.2469796,South Health Center,33.94384625,-118.2461724,Doctor's Office
755,33.94895071,-118.2469796,Coinstar,33.94349289,-118.2446518,Bank
756,33.94895071,-118.2469796,Instant Tax Service,33.94560171,-118.2538015,Bank
757,33.94895071,-118.2469796,Stefani Germanotta Beauty Spa,33.95095832,-118.2393424,Salon / Barbershop
758,33.94895071,-118.2469796,Mats Pharmacy & Medical Supplies,33.930604,-118.201865,Pharmacy
759,33.94895071,-118.2469796,Watts Healthy Farmers' Market,33.94387043,-118.2523739,Farmers Market
760,33.94895071,-118.2469796,N&D Auto Repair,33.956953,-118.247392,Hardware Store
761,33.94895071,-118.2469796,September Flowers Deliveries,33.94831,-118.237264,Flower Shop
762,33.94895071,-118.2469796,Continental Currency Services,33.94358063,-118.2439423,Currency Exchange
763,33.94895071,-118.2469796,Magic Hands Barber Shop,33.94846544,-118.2389598,Salon / Barbershop
764,33.94895071,-118.2469796,Top Nails Spa,33.94335175,-118.2452774,Cosmetics Shop
765,33.94895071,-118.2469796,Daddy & Me Carwash,33.94836426,-118.2371902,Car Wash
766,33.94895071,-118.2469796,Drew Child Development Center,33.95317078,-118.2445068,School
767,33.94895071,-118.2469796,Nutritional Products,33.95116,-118.24632,Coworking Space
768,33.94895071,-118.2469796,B.D. Burgers,33.94400787,-118.2543488,Burger Joint
769,33.94895071,-118.2469796,Chase Bank,33.943535,-118.246737,Bank
770,33.94895071,-118.2469796,LAFD Fire Station 65,33.946023,-118.240428,Fire Station
771,33.94895071,-118.2469796,Central Store,33.94477463,-118.2542648,Miscellaneous Shop
772,33.94895071,-118.2469796,Drew Middle School,33.95283819,-118.2379807,School
773,33.94895071,-118.2469796,M&T Donuts,33.94392014,-118.24543,Donut Shop
774,33.94895071,-118.2469796,cafe oxaca,33.94569538,-118.2537672,Mexican Restaurant
775,33.94895071,-118.2469796,everytable,33.944242,-118.244996,Restaurant
776,33.94895071,-118.2469796,Watts Coffee House,33.94355836,-118.2399539,Café
777,33.94895071,-118.2469796,742 Head Quaters,33.951171,-118.255781,Event Space
778,33.94895071,-118.2469796,Shields,33.951414,-118.255565,Office
779,33.94895071,-118.2469796,Riley high school,33.942945,-118.247252,High School
780,33.94895071,-118.2469796,A New Way Of Life Office,33.95016479,-118.253952,Non-Profit
781,33.94895071,-118.2469796,Watts Gang Task Force,33.94359908,-118.2477713,Building
782,33.94895071,-118.2469796,Youth Opportunities High School,33.94347763,-118.2398682,High School
783,33.94895071,-118.2469796,Watts Time Bank,33.94349436,-118.2466121,Building
784,33.94895071,-118.2469796,War of Roses,33.94862522,-118.2576502,Residential Building (Apartment / Condo)
785,33.94895071,-118.2469796,Anzac Market,33.95043,-118.237212,Market
786,33.94895071,-118.2469796,St. Lawrence Middle Middle School,33.94482843,-118.2454871,Middle School
787,33.94895071,-118.2469796,G POPS,33.94381944,-118.2525694,Building
788,33.94895071,-118.2469796,Recycle To Conserve,33.953703,-118.242761,Building
789,33.94895071,-118.2469796,running errands,33.94835281,-118.237175,Moving Target
790,33.94895071,-118.2469796,1$ Plus Store,33.94426251,-118.2430772,Miscellaneous Shop
791,33.94895071,-118.2469796,Kaiser Permanente Watts Counseling & Learning Center.,33.943509,-118.248506,Building
792,33.94895071,-118.2469796,Chinese Express,33.943531,-118.244736,Chinese Restaurant
793,33.94895071,-118.2469796,Migraine Central #ALLBAD,33.948366,-118.237063,Hospital
794,33.94895071,-118.2469796,Lineman Rodeo,33.945932,-118.254959,Trade School
795,34.06211203,-118.2771383,Consulate General of Mexico in Los Angeles (Consulado General de Mexico en Los Angeles),34.06153677,-118.2778422,Embassy / Consulate
796,34.06211203,-118.2771383,Park View Apartments,34.06235293,-118.2771372,Residential Building (Apartment / Condo)
797,34.06211203,-118.2771383,MacArthur Park,34.05866823,-118.2775211,Park
798,34.06211203,-118.2771383,Consulado De Mexico,34.061584,-118.277802,Government Building
799,34.06211203,-118.2771383,Park Plaza Barber Shop,34.060952,-118.279107,Salon / Barbershop
800,34.06211203,-118.2771383,Teatro Frida Kahlo,34.06344532,-118.2763843,Theater
801,34.06211203,-118.2771383,Grand View Apartments,34.06223047,-118.2762869,Residential Building (Apartment / Condo)
802,34.06211203,-118.2771383,Jozsef Cardinal Mindszenty Square,34.0607662,-118.27812,Park
803,34.06211203,-118.2771383,Scanning Nations,34.06168747,-118.2802582,Business Service
804,34.06211203,-118.2771383,Mr. Naturals,34.06040504,-118.2749297,Marijuana Dispensary
805,34.06211203,-118.2771383,Thai Orchid Massage,34.10199885,-118.32184,Massage Studio
806,34.06211203,-118.2771383,Terrace Ballroom,34.06088257,-118.2791595,Performing Arts Venue
807,34.06211203,-118.2771383,Glen's Auto,33.978785,-118.308615,Automotive Shop
808,34.06211203,-118.2771383,Plump,34.06077957,-118.2803116,Nightclub
809,34.06211203,-118.2771383,Department Of Social Services,34.06133971,-118.278707,Government Building
810,34.06211203,-118.2771383,Humming Motors Auto Repair,34.06082,-118.275893,Automotive Shop
811,34.06211203,-118.2771383,Frida Khalo theater,34.06354544,-118.2766241,Theater
812,34.06211203,-118.2771383,Wicked Skatewear,34.06441136,-118.2755728,Clothing Store
813,34.06211203,-118.2771383,Dr. Alpan - LA Office,34.06465149,-118.2766113,Dentist's Office
814,34.06211203,-118.2771383,Quartermaster Uniforms,34.06198043,-118.2800791,Clothing Store
815,34.06211203,-118.2771383,La Fiesta Laundry,34.06046677,-118.2748108,Laundry Service
816,34.06211203,-118.2771383,Park Plaza Barbershop,34.06167603,-118.2760849,Salon / Barbershop
817,34.06211203,-118.2771383,"At The Park Plaza Hotel, Where's @rellimnairbari?",34.0609853,-118.277372,General Entertainment
818,34.06211203,-118.2771383,Asbury,34.06159483,-118.2792788,Residential Building (Apartment / Condo)
819,34.06211203,-118.2771383,Alpan  Orthodontics,34.0646282,-118.2764842,Dentist's Office
820,34.06211203,-118.2771383,National Research Institute,34.05728531,-118.2751465,Doctor's Office
821,34.06211203,-118.2771383,Hanford Apartments,34.063109,-118.279266,Residential Building (Apartment / Condo)
822,34.06211203,-118.2771383,Panaderia Chapinlandia Bakery,34.061347,-118.279375,Bakery
823,34.06211203,-118.2771383,Laguna Market,34.060245,-118.275369,Market
824,34.06211203,-118.2771383,Bamboo Express,34.059045,-118.274658,Chinese Restaurant
825,34.06211203,-118.2771383,Disorderly Kids/Avalon Apperal,34.061979,-118.280265,Office
826,34.06211203,-118.2771383,StickyGiant,34.061627,-118.276211,Office
827,34.06211203,-118.2771383,First & Hope Valet Parking,34.0625998,-118.276704,Parking
828,34.06211203,-118.2771383,William Reagh Los Angeles Photography Center,34.06344604,-118.2763443,Theater
829,34.06211203,-118.2771383,Intake Window 24,34.061064,-118.278757,Professional & Other Places
830,34.06211203,-118.2771383,St. Nicholas Cedars Manor,34.063901,-118.275781,Residential Building (Apartment / Condo)
831,34.06211203,-118.2771383,chubbles and pudgey,34.061948,-118.279359,Residential Building (Apartment / Condo)
832,34.06211203,-118.2771383,2515 Ocean View,34.062979,-118.278511,Residential Building (Apartment / Condo)
833,34.06211203,-118.2771383,Beer And Fries,34.06158066,-118.2790833,Pub
834,34.06211203,-118.2771383,Sun Spa Massage,34.0635955,-118.2777374,Building
835,34.06211203,-118.2771383,Levitt Pavilion (MacArthur Park),34.06016697,-118.2782011,Performing Arts Venue
836,34.06211203,-118.2771383,The Itty-bitty HRI Gym,34.06241226,-118.2734375,Gym
837,34.06211203,-118.2771383,Nob Hill Towers Rooftop,34.06234391,-118.2780523,Other Nightlife
838,34.06211203,-118.2771383,Dentist,34.060055,-118.275638,Dentist's Office
839,34.06211203,-118.2771383,El Serranto,34.061527,-118.27754,Food Truck
840,34.06211203,-118.2771383,Miracle Nails,34.06016793,-118.2758019,Nail Salon
841,34.06211203,-118.2771383,The TARDIS,34.06334,-118.279099,Residential Building (Apartment / Condo)
842,34.06211203,-118.2771383,MacArthur Park Community Arts Center,34.06018066,-118.2771835,College Rec Center
843,34.06211203,-118.2771383,DPSS,34.061518,-118.278417,Government Building
844,34.06211203,-118.2771383,Korea/indian Market,34.06134068,-118.2787823,Food
845,34.06211203,-118.2771383,Skye Line,34.062252,-118.275442,Lounge
846,34.06211203,-118.2771383,New Life Community Church,34.06077576,-118.2808762,Church
847,34.06211203,-118.2771383,West 5th Street Stairs,34.06405258,-118.2789459,Trail
848,34.06211203,-118.2771383,Sexwise Studios,34.0603748,-118.2783794,General Entertainment
849,34.06211203,-118.2771383,Fiedler Group,34.064106,-118.275454,Office
850,34.06211203,-118.2771383,The Standard Oil Investment Group,34.061683,-118.280309,Office
851,34.06211203,-118.2771383,Gilbert Gomez Chiropractic Care,34.064376,-118.276132,Chiropractor
852,34.06211203,-118.2771383,Electric Yoga,34.0618881,-118.2803181,Building
853,34.06211203,-118.2771383,Alta Arms,34.06253433,-118.2797928,Residential Building (Apartment / Condo)
854,34.06211203,-118.2771383,Master Pollo,34.06033707,-118.2755814,South American Restaurant
855,34.06211203,-118.2771383,labyrinth of jareth,34.06076701,-118.2792504,Other Nightlife
856,34.06211203,-118.2771383,L.A Autentica Food Truck,34.06353839,-118.2777945,Food Truck
857,34.06211203,-118.2771383,Options For Youth Koreatown,34.064184,-118.275476,High School
858,34.06211203,-118.2771383,The MacArthur,34.06079547,-118.2789258,Hotel
859,34.06211203,-118.2771383,Calbiz Supplies,34.06168747,-118.2802582,Miscellaneous Shop
860,34.06211203,-118.2771383,St. Nicholas Cathedral,34.06393727,-118.2751486,Church
861,34.06211203,-118.2771383,El Riconcito De La Magnolia Los Molcajetes,34.06196068,-118.278394,Latin American Restaurant
862,34.06211203,-118.2771383,Los Molcajetes,34.06196625,-118.2803352,South American Restaurant
863,34.0485643,-118.21152,Guisados,34.04832544,-118.2115103,Taco Place
864,34.0485643,-118.21152,Carnitas Uruapan Market & Bakery,34.048437,-118.211328,Market
865,34.0485643,-118.21152,Chavez Pollo Burger,34.048695,-118.211527,Burger Joint
866,34.0485643,-118.21152,City Of Angels Tattoo,34.049001,-118.211704,Tattoo Parlor
867,34.0485643,-118.21152,Shakey's Pizza Parlor,34.04909158,-118.2123797,Pizza Place
868,34.0485643,-118.21152,AutoZone,34.04943727,-118.2127297,Automotive Shop
869,34.0485643,-118.21152,El Pollo Loco,34.048799,-118.212593,Fast Food Restaurant
870,34.0485643,-118.21152,La Parilla Mexican Restaurant,34.04798741,-118.2107193,Mexican Restaurant
871,34.0485643,-118.21152,Lucy’s Laundromat,34.04962346,-118.2135677,Laundromat
872,34.0485643,-118.21152,McDonald's,34.04631682,-118.2085294,Fast Food Restaurant
873,34.0485643,-118.21152,Otros Libros / Other Books,34.048633,-118.212523,Bookstore
874,34.0485643,-118.21152,Hotel Antonio,34.04614351,-118.2089626,Hotel
875,34.0485643,-118.21152,La Chispa De Oro,34.047703,-118.209325,Mexican Restaurant
876,34.0485643,-118.21152,Latinx With Plants,34.048286,-118.210852,Garden Center
877,34.0485643,-118.21152,Cricket Wireless Authorized Retailer,34.048218,-118.210327,Mobile Phone Shop
878,34.0485643,-118.21152,Walgreens,34.0475511,-118.2087944,Pharmacy
879,34.0485643,-118.21152,THE CREAM SHOP L.A.,34.04876,-118.211815,Business Center
880,34.0485643,-118.21152,Nails,34.04772382,-118.2095581,Nail Salon
881,34.0485643,-118.21152,La Monarca Bakery & Cafe,34.048218,-118.210327,Coffee Shop
882,34.0485643,-118.21152,Bank of America,34.04736572,-118.2085323,Bank
883,34.0485643,-118.21152,La Jerezana Ice Cream Parlor,34.047757,-118.21004,Ice Cream Shop
884,34.0485643,-118.21152,KeyMe Locksmiths,34.04944,-118.21492,Locksmith
885,34.0485643,-118.21152,Shoe Palace,34.04710444,-118.2079747,Shoe Store
886,34.0485643,-118.21152,Bike shop,34.048957,-118.212112,Bike Shop
887,34.0485643,-118.21152,Rosa's Nails Place,34.04798626,-118.2099922,Nail Salon
888,34.0485643,-118.21152,Botanica La Santa Cruz,34.04811096,-118.2112808,Food
889,34.0485643,-118.21152,98 Cent Store,34.04613242,-118.2089346,Grocery Store
890,34.0485643,-118.21152,Omega Podiatry,34.0480599,-118.2102585,Doctor's Office
891,34.0485643,-118.21152,savy store,34.048328,-118.211783,Men's Store
892,34.0485643,-118.21152,Dollar max,34.04615021,-118.2059402,Department Store
893,34.0485643,-118.21152,GLOBAL TAX MULTISERVICES,34.0485582,-118.2120303,Financial or Legal Service
894,34.0485643,-118.21152,IPE,34.048656,-118.21232,Clothing Store
895,34.0485643,-118.21152,VIP Pet Grooming,34.047221,-118.207832,Pet Store
896,34.0485643,-118.21152,99 Cents Barato,34.047891,-118.210763,Convenience Store
897,34.0485643,-118.21152,El Pavo Bakery,34.047112,-118.207998,Bakery
898,34.0485643,-118.21152,Thai Deli,34.05041155,-118.2151999,Thai Restaurant
899,34.0485643,-118.21152,Wok on Soto,34.04705911,-118.2079124,Chinese Restaurant
900,34.0485643,-118.21152,Troy's Drive in,34.04870605,-118.2115402,Food
901,34.0485643,-118.21152,La Michoacana Boyle Heights,34.0467186,-118.2081223,Ice Cream Shop
902,34.0485643,-118.21152,Mariscos Las Brisas,34.05061389,-118.2153996,Seafood Restaurant
903,34.0485643,-118.21152,La Morena Bakery,34.048111,-118.211321,Bakery
904,34.0485643,-118.21152,Comunidad Cesar Chavez,34.045908,-118.210095,Assisted Living
905,34.0485643,-118.21152,@PleitezForLA Mayor Office,34.04894387,-118.2131222,Campaign Office
906,34.0485643,-118.21152,Amanda Foundation SpayMobile,34.04537205,-118.2121512,Food Truck
907,34.0485643,-118.21152,Botica Del SOL,34.05153612,-118.2104544,Pharmacy
908,34.0485643,-118.21152,Norma's Beauty Salon,34.048806,-118.211633,Salon / Barbershop
909,34.0485643,-118.21152,Nails & Airbrush By Paul,34.047703,-118.209325,Salon / Barbershop
910,34.0485643,-118.21152,La Sirena Del Pacífico,34.046993,-118.208945,Food Truck
911,34.0485643,-118.21152,Los Antojitos,34.04863039,-118.2142817,Mexican Restaurant
912,34.0485643,-118.21152,Desolation Of The Dragon,34.04596501,-118.2144587,Scenic Lookout
913,34.0485643,-118.21152,Sheridan St School,34.05148624,-118.2104249,Elementary School
914,34.0485643,-118.21152,G & G Car Sales/car Wash,34.04977563,-118.2152136,Automotive Shop
915,34.0485643,-118.21152,Torres Car Wash,34.04979261,-118.2151041,Car Wash
916,34.0485643,-118.21152,avalos tires,34.04852334,-118.211363,Automotive Shop
917,34.0485643,-118.21152,ABC hello Kitty Store,34.04708862,-118.2079391,Gift Shop
918,34.0485643,-118.21152,Good Stuff Thrift Shop,34.048807,-118.211804,Thrift / Vintage Store
919,34.0485643,-118.21152,LAFD Fire Station 2,34.04905,-118.213507,Fire Station
920,34.0485643,-118.21152,Brooklyn Hair Styler,34.048117,-118.210196,Salon / Barbershop
921,34.0485643,-118.21152,Boyle Heights Family Dentistry,34.048097,-118.211191,Dentist's Office
922,34.0485643,-118.21152,El Apetito Restaurant,34.048264,-118.21054,Mexican Restaurant
923,34.0485643,-118.21152,Latin Jam Studio,34.047447,-118.209873,Gym
924,34.0485643,-118.21152,Velarde's FRUIT,34.048006,-118.209889,Juice Bar
925,34.0485643,-118.21152,Diamond Toys & Gifts,34.047392,-118.209712,Clothing Store
926,34.0485643,-118.21152,Don Roberto Jewelers,34.047447,-118.209873,Jewelry Store
927,34.0485643,-118.21152,"Dr. Eugene Song, D.D.S. Family Dentistry",34.04761,-118.210228,Dentist's Office
928,34.0485643,-118.21152,Tacos Cemitas,34.04857442,-118.2093582,Food Truck
929,34.0485643,-118.21152,SSFNUS,34.04736578,-118.2116622,General Entertainment
930,34.0485643,-118.21152,Happy Fashion,34.04761,-118.210228,Clothing Store
931,34.0485643,-118.21152,El Rincon De Ross,34.04725272,-118.2076161,Juice Bar
932,34.0485643,-118.21152,Metro 68/620,34.04858518,-118.2158181,Bus Line
933,34.0485643,-118.21152,ARCO,34.040371,-118.212153,Building
934,34.0485643,-118.21152,Brooklyn Liquor,34.04856,-118.21122,Convenience Store
935,34.0485643,-118.21152,Marisols Herbalife Distributer,34.048344,-118.210714,Food
936,34.0485643,-118.21152,ABC Gifts,34.047112,-118.207998,Gift Shop
937,34.0485643,-118.21152,Teo's Auto Detailing,34.049723,-118.215298,Car Wash
938,34.0485643,-118.21152,Clinique Beauty,34.051496,-118.210399,Cosmetics Shop
939,34.0485643,-118.21152,Assia Mobile Electronics,34.049913,-118.214874,Automotive Shop
940,34.0485643,-118.21152,K&G Automotive Services,34.049595,-118.215048,Automotive Shop
941,34.0485643,-118.21152,Brooklyn Hair Salon,34.05146,-118.210388,Salon / Barbershop
942,34.0485643,-118.21152,Holiday Auto Center,34.0355835,-118.2180481,Automotive Shop
943,34.0485643,-118.21152,Be Bella Beauty Salon,34.0467829,-118.2147672,Salon / Barbershop
944,34.05907053,-118.3030171,K-Town,34.0583306,-118.3016928,Spiritual Center
945,34.05907053,-118.3030171,The View Apartments,34.05953,-118.3027018,Residential Building (Apartment / Condo)
946,34.05907053,-118.3030171,Gym @ The Kingsley Diplomat,34.058887,-118.303618,Gym
947,34.05907053,-118.3030171,700 S Ardmore Ave,34.059438,-118.301829,Residential Building (Apartment / Condo)
948,34.05907053,-118.3030171,Kingsley Diplomat,34.058724,-118.30276,Residential Building (Apartment / Condo)
949,34.05907053,-118.3030171,The Pan's View,34.059386,-118.302562,Wine Bar
950,34.05907053,-118.3030171,Retina Institute Of California- K-Town,34.05966546,-118.3038564,Eye Doctor
951,33.96335005,-118.273936,McDonald's,33.9604451,-118.2743615,Fast Food Restaurant
952,33.96335005,-118.273936,LAPD 77th St Station,33.97029315,-118.2777733,Police Station
953,33.96335005,-118.273936,82nd and Broadway,33.96548821,-118.2782627,Salon / Barbershop
954,33.96335005,-118.273936,In the Scooby Mobile!,33.95915585,-118.2735923,Other Great Outdoors
955,33.96335005,-118.273936,Roscoe's House of Chicken and Waffles,33.96002904,-118.2743843,Southern / Soul Food Restaurant
956,33.96335005,-118.273936,H&R Block,33.9609027,-118.2781047,Financial or Legal Service
957,33.96335005,-118.273936,Metro by T-Mobile,33.96029542,-118.2787871,Mobile Phone Shop
958,33.96335005,-118.273936,Metro by T-Mobile,33.964254,-118.265445,Mobile Phone Shop
959,33.96335005,-118.273936,Sinclair,33.960343,-118.269941,Gas Station
960,33.96335005,-118.273936,Free STD Clinics,33.95985031,-118.275116,Medical Center
961,33.96335005,-118.273936,Penske Truck Rental,33.96048953,-118.2718979,Rental Service
962,33.96335005,-118.273936,ARCO,33.960276,-118.277479,Gas Station
963,33.96335005,-118.273936,Harbor Transit Way @ Manchester,33.96012317,-118.2808348,Bus Station
964,33.96335005,-118.273936,Public Storage,33.960332,-118.279977,Storage Facility
965,33.96335005,-118.273936,Subway,33.96033466,-118.2786364,Sandwich Place
966,33.96335005,-118.273936,AutoZone,33.95970792,-118.2762224,Automotive Shop
967,33.96335005,-118.273936,KUSHLAND,33.96157347,-118.2785597,Marijuana Dispensary
968,33.96335005,-118.273936,Little Caesars Pizza,33.96035767,-118.2766953,Pizza Place
969,33.96335005,-118.273936,Western Dental & Orthodontics,33.960303,-118.27957,Business Service
970,33.96335005,-118.273936,Archila A Auto Sound,33.959921,-118.270396,Automotive Shop
971,33.96335005,-118.273936,South-East Flowers,33.960408,-118.27499,Flower Shop
972,33.96335005,-118.273936,El Pollo Loco,33.960347,-118.273555,Fast Food Restaurant
973,33.96335005,-118.273936,110fwy,33.96005757,-118.2806492,General Travel
974,33.96335005,-118.273936,West Side Barber Shop & Salon,33.964254,-118.265445,Salon / Barbershop
975,33.96335005,-118.273936,Western Truck Exchange,33.959686,-118.281514,Automotive Shop
976,33.96335005,-118.273936,Elegant Spa,33.95997744,-118.2741575,Nail Salon
977,33.96335005,-118.273936,@basketball(culver city),33.96223801,-118.2760759,Basketball Court
978,33.96335005,-118.273936,Tg Boxing,33.959825,-118.278879,Gym / Fitness Center
979,33.96335005,-118.273936,Bank of America,33.96044062,-118.2779905,Bank
980,33.96335005,-118.273936,Western Truck Exchange,33.96047974,-118.2718658,Automotive Shop
981,33.96335005,-118.273936,Ernies Continental Delicatesse and Imports,33.96218491,-118.3262634,Food
982,33.96335005,-118.273936,New Bay Hotel,33.963001,-118.283061,Hotel
983,33.96335005,-118.273936,St Joseph Center,33.9609,-118.27871,Office
984,33.96335005,-118.273936,Sinclair Gas,33.960274,-118.26975,Gas Station
985,33.96335005,-118.273936,Kipp Empower Academy,33.961846,-118.282354,School
986,33.96335005,-118.273936,Alliance College Ready Academy High School #5,33.95839746,-118.2781656,High School
987,33.96335005,-118.273936,Main Liquor Mart,33.964016,-118.274137,Wine Bar
988,33.96335005,-118.273936,Dodger Stafium,33.96649324,-118.2806492,Baseball Field
989,33.96335005,-118.273936,El Gym,33.96261,-118.268556,Gym
990,33.96335005,-118.273936,Powerhouse COGIC,33.96763433,-118.2717138,Church
991,33.96335005,-118.273936,Street Taco Stand,33.96889496,-118.2728806,Taco Place
992,33.96335005,-118.273936,random warehouse,33.95982803,-118.277589,Music Venue
993,33.96335005,-118.273936,Serrano's Auto Upholstery,33.96000262,-118.27285,Automotive Shop
994,33.96335005,-118.273936,Sky High Ink Tattoos & Body Piercings,33.96046,-118.27491,Tattoo Parlor
995,33.96335005,-118.273936,Car Wash,33.960289,-118.2687912,Car Wash
996,33.96335005,-118.273936,Sopps Auto Service Center,33.96035004,-118.2757721,Automotive Shop
997,33.96335005,-118.273936,Melendez towing,33.969105,-118.275905,Automotive Shop
998,33.96335005,-118.273936,Fast wheels and Tires,33.96088989,-118.2725246,Automotive Shop
999,33.96335005,-118.273936,KE,33.967067,-118.277243,Salon / Barbershop
1000,33.96335005,-118.273936,Carranza Rims & Tires,33.95974731,-118.2767105,Auto Garage
1001,33.96335005,-118.273936,Hector's Barber Shop,33.96568,-118.278607,Salon / Barbershop
1002,33.96335005,-118.273936,Betty's Beauty Salon,33.964959,-118.278049,Salon / Barbershop
1003,33.96335005,-118.273936,Broadway Beauty Supply,33.95956039,-118.2777634,Cosmetics Shop
1004,33.96335005,-118.273936,First Ladys Nails,33.96431,-118.278542,Salon / Barbershop
1005,33.96335005,-118.273936,407 Wireless,33.96118164,-118.2733154,Mobile Phone Shop
1006,33.96335005,-118.273936,OK Auto JI,33.95970917,-118.2737122,Automotive Shop
1007,33.96335005,-118.273936,Main Video S,33.96047439,-118.2736494,Video Store
1008,33.96335005,-118.273936,Community Laundry,33.966163,-118.274317,Laundromat
1009,33.96335005,-118.273936,Exclusively Raw,33.959691,-118.2742,Nail Salon
1010,33.96335005,-118.273936,$1 Tacos,33.96807022,-118.2782284,Food Truck
1011,33.96335005,-118.273936,Burger Palace,33.959943,-118.2735401,Burger Joint
1012,33.96335005,-118.273936,The Potter's House Church of Los Angeles,33.959673,-118.277822,Church
1013,33.96335005,-118.273936,Kanoa's,33.96534348,-118.2734451,Convention Center
1014,33.96335005,-118.273936,El Tacorian,33.96453857,-118.2787399,Taco Place
1015,33.96335005,-118.273936,Sushinaloa,33.96658709,-118.2807235,Mexican Restaurant
1016,33.96335005,-118.273936,Hong Kong Express,33.96027083,-118.2767261,Restaurant
1017,33.96335005,-118.273936,Manuels Burgers,33.959817,-118.269863,Mexican Restaurant
1018,33.96335005,-118.273936,Tesoros Misticos,33.959819,-118.277439,Miscellaneous Shop
1019,33.96335005,-118.273936,Bienestar South LA,33.959858,-118.275117,Event Space
1020,33.96335005,-118.273936,Mother's Nutritional Center,33.959817,-118.269863,Miscellaneous Shop
1021,33.96335005,-118.273936,B and B Liquors,33.961505,-118.273659,Wine Bar
1022,33.96335005,-118.273936,holmes early education center,33.96571732,-118.2706223,Building
1023,33.96335005,-118.273936,South Region High School #12,33.95714951,-118.2690506,High School
1024,33.96335005,-118.273936,CCC Leadership & Business Training Center (L.B.T.C.),33.957903,-118.278627,Non-Profit
1025,33.96335005,-118.273936,dymally,33.95798429,-118.2681338,School
1026,33.96335005,-118.273936,Howard's Coin Op & Hand Carwash,33.960396,-118.268596,Miscellaneous Shop
1027,33.96335005,-118.273936,No Cuffs Bail Bonds,33.96954,-118.278023,Office
1028,33.96335005,-118.273936,Destiny's Girls Academy,33.959876,-118.278657,Trade School
1029,33.96335005,-118.273936,Taxman,33.96045303,-118.2748489,Building
1030,33.96335005,-118.273936,Cultural Heritage Candle Co.,33.95985681,-118.2777203,Miscellaneous Shop
1031,33.96335005,-118.273936,San Miguel Archangel,33.96327663,-118.2798442,Miscellaneous Shop
1032,33.96335005,-118.273936,Da Laundry Zone,33.962199,-118.268823,Building
1033,33.96335005,-118.273936,Mother Of Sorrows Church,33.95826632,-118.2742717,Church
1034,33.96335005,-118.273936,House Of Prayer Church Of God In Christ,33.96270752,-118.2654572,Church
1035,33.96335005,-118.273936,Greater Faith Baptist Church,33.969017,-118.277907,Church
1036,33.96335005,-118.273936,Heavenly Vision COGIC,33.961681,-118.277474,Church
1037,33.96335005,-118.273936,CCC of Los Angeles Sunday Services,33.95801813,-118.2785425,Church
1038,33.96335005,-118.273936,Los tedidos de johava,33.960391,-118.270877,Church
1039,33.96335005,-118.273936,Iglesia Misionera Cristiana,33.96838579,-118.2783483,Church
1040,33.96335005,-118.273936,G's,33.96019775,-118.2759047,Brewery
1041,33.96335005,-118.273936,Street Tacos Spot,33.96408324,-118.2824391,Taco Place
1042,33.96335005,-118.273936,Philippian Baptist Church,33.956932,-118.273563,Church
1043,33.96335005,-118.273936,God Inspired Worship Center,33.961643,-118.269779,Church
1044,33.96335005,-118.273936,CCC of Los Angeles Bible Study,33.957903,-118.278627,Church
1045,33.96335005,-118.273936,Ibarra Bakery,33.96453857,-118.2787399,Bakery
1046,34.04475373,-118.2527367,Little Fluffy Head Cafe,34.04472196,-118.2525313,Bubble Tea Shop
1047,34.04475373,-118.2527367,Weird Beers,34.04485481,-118.2526895,Beer Store
1048,34.04475373,-118.2527367,PSC Pocket Square Clothing,34.04478332,-118.2525659,Men's Store
1049,34.04475373,-118.2527367,Goshen Cuisine,34.04490185,-118.2528358,Sushi Restaurant
1050,34.04475373,-118.2527367,DTLA Bodega,34.044469,-118.252064,Deli / Bodega
1051,34.04475373,-118.2527367,CVS pharmacy,34.04467353,-118.2524802,Pharmacy
1052,34.04475373,-118.2527367,Little Damage,34.04455568,-118.2522418,Ice Cream Shop
1053,34.04475373,-118.2527367,Lucky Bakery,34.044199,-118.252164,Bakery
1054,34.04475373,-118.2527367,DTLA Village,34.04499826,-118.2530647,Design Studio
1055,34.04475373,-118.2527367,The Haas Building,34.04522466,-118.2532076,Residential Building (Apartment / Condo)
1056,34.04475373,-118.2527367,Juice Crafters,34.04456019,-118.2523764,Juice Bar
1057,34.04475373,-118.2527367,Tierra Mia,34.0447807,-118.2520994,Coffee Shop
1058,34.04475373,-118.2527367,Funculo,34.044051,-118.252679,Italian Restaurant
1059,34.04475373,-118.2527367,Corporation Food Hall,34.04399871,-118.2527162,Food Court
1060,34.04475373,-118.2527367,LA Café,34.04499906,-118.251879,American Restaurant
1061,34.04475373,-118.2527367,Second Glass Wine Riot,34.044622,-118.251794,Wine Bar
1062,34.04475373,-118.2527367,LA Historic Core Loft,34.04466636,-118.2527622,General Travel
1063,34.04475373,-118.2527367,Carl's Jr.,34.0449657,-118.2534014,Fast Food Restaurant
1064,34.04475373,-118.2527367,Check Ca$him,34.045015,-118.252903,Lottery Retailer
1065,34.04475373,-118.2527367,Clifton's Brookdale,34.04461302,-118.252471,American Restaurant
1066,34.04475373,-118.2527367,Van Nuys Building,34.044411,-118.252898,Residential Building (Apartment / Condo)
1067,34.04475373,-118.2527367,The Bar Method,34.043815,-118.252751,Gym / Fitness Center
1068,34.04475373,-118.2527367,Sunitaz Eyebrow Threading,34.044799,-118.253253,Health & Beauty Service
1069,34.04475373,-118.2527367,Bang Bang Room,34.045036,-118.252802,Gay Bar
1070,34.04475373,-118.2527367,Gyoza Boyz LA,34.043914,-118.252652,Japanese Restaurant
1071,34.04475373,-118.2527367,Spring tower lofts,34.0449611,-118.2519667,Building
1072,34.04475373,-118.2527367,The Other Art Fair,34.04467,-118.251918,Art Gallery
1073,34.04475373,-118.2527367,Buddha Belly,34.04400574,-118.2527262,Thai Restaurant
1074,34.04475373,-118.2527367,Tacos Tu Madre,34.043999,-118.25267,Taco Place
1075,34.04475373,-118.2527367,Kai Ramen Downtown LA,34.045089,-118.252912,Ramen Restaurant
1076,34.04475373,-118.2527367,Burger Shop,34.04382324,-118.2525864,Burger Joint
1077,34.04475373,-118.2527367,Hole In The Wall Texas Burgers And Stuff,34.04519477,-118.2532248,Burger Joint
1078,34.04475373,-118.2527367,Majestic Halls,34.04494855,-118.2520155,General Entertainment
1079,34.04475373,-118.2527367,The Gothic Bar at Clifton's Cafeteria,34.04539721,-118.253102,Lounge
1080,34.04475373,-118.2527367,KFC,34.04470922,-118.2533671,Fried Chicken Joint
1081,34.04475373,-118.2527367,Guido in LA,34.041699,-118.255377,Clothing Store
1082,34.04475373,-118.2527367,7th Sole,34.044899,-118.252432,Shoe Store
1083,34.04475373,-118.2527367,Circle K,34.045045,-118.2528006,Convenience Store
1084,34.04475373,-118.2527367,The Reserve,34.04971955,-118.2519571,Cocktail Bar
1085,34.04475373,-118.2527367,Kinetescape,34.0450592,-118.2522507,Antique Shop
1086,34.04475373,-118.2527367,Pacific Seas,34.04543358,-118.2531476,Tiki Bar
1087,34.04475373,-118.2527367,Ramen Koo,34.0451,-118.253136,Noodle House
1088,34.04475373,-118.2527367,Color Check Cashing,34.0451889,-118.2529526,Miscellaneous Shop
1089,34.04475373,-118.2527367,Fremont,34.044425,-118.25138,Boutique
1090,34.04475373,-118.2527367,Spring Street Parklet (at LA Cafe),34.04521942,-118.2521439,Park
1091,34.04475373,-118.2527367,Paraiso Pet Shop,34.043445,-118.251094,Pet Store
1092,34.04475373,-118.2527367,The Monarch Bar,34.0453761,-118.2530652,Bar
1093,34.04475373,-118.2527367,Angus Crowne’s Milkshakes Emporium,34.04481125,-118.2518311,Dessert Shop
1094,34.04475373,-118.2527367,Surfer Grill,34.044184,-118.252823,Mexican Restaurant
1095,34.04475373,-118.2527367,Loft 207,34.04510498,-118.2528305,Salon / Barbershop
1096,34.04475373,-118.2527367,TAKASAN,34.04507953,-118.2530938,Japanese Restaurant
1097,34.04475373,-118.2527367,733 bus stop in front of Nightoast,34.04479,-118.251902,Bus Line
1098,34.04475373,-118.2527367,village market,34.045086,-118.252855,Convenience Store
1099,34.04475373,-118.2527367,Speaker Of The Assembly's Office,34.04490908,-118.2520827,Government Building
1100,34.04475373,-118.2527367,Most Filmed Intersection in the World,34.044399,-118.252451,Historic Site
1101,34.04475373,-118.2527367,Bimi,34.046564,-118.256111,Japanese Restaurant
1102,34.04475373,-118.2527367,Brand Acupuncture,34.04457608,-118.2521741,Acupuncturist
1103,34.04475373,-118.2527367,Panini Stop,34.04463203,-118.2523511,American Restaurant
1104,34.04475373,-118.2527367,Bellman's Pub,34.04477513,-118.253162,Irish Pub
1105,34.04475373,-118.2527367,Juice Bar,34.04427338,-118.2522736,Food
1106,34.04475373,-118.2527367,Metro 728 Bus Stop,34.044189,-118.2524824,Bus Station
1107,34.04475373,-118.2527367,Tacos Y Tortas Guadalajara,34.045148,-118.25394,Food
1108,34.04475373,-118.2527367,Pig Pen Delicacy,34.0438521,-118.2525752,Fast Food Restaurant
1109,34.04475373,-118.2527367,The Jungle Showroom And Gallery,34.04399872,-118.2530975,Art Gallery
1110,34.04475373,-118.2527367,Shadow Box @ Clifton's,34.045373,-118.252942,Speakeasy
1111,34.04475373,-118.2527367,Spring Towers Penthouse,34.045225,-118.252388,Resort
1112,34.04475373,-118.2527367,ZigiNY,34.04431499,-118.2526594,Office
1113,34.04475373,-118.2527367,Chiquitita,34.044037,-118.252768,Mexican Restaurant
1114,34.04475373,-118.2527367,Masa Coffee Lab,34.044519,-118.252186,Café
1115,34.04475373,-118.2527367,Heritage Kitchen,34.044018,-118.252687,Mexican Restaurant
1116,34.04475373,-118.2527367,Natural Light Studio,34.04492188,-118.2524185,Event Space
1117,34.04475373,-118.2527367,The Monroe Artistry,34.043626,-118.249082,Salon / Barbershop
1118,34.04475373,-118.2527367,DTLA Fire Escape,34.044809,-118.253061,Historic Site
1119,34.04475373,-118.2527367,TheUrban Sanctuary,34.04510498,-118.2528305,Event Space
1120,34.04475373,-118.2527367,Jewelry Acapulco,34.045077,-118.253231,Jewelry Store
1121,34.04475373,-118.2527367,LA Girl Jewelry Store,34.0453186,-118.2531281,Jewelry Store
1122,34.04475373,-118.2527367,Pale Violet HQ,34.04448995,-118.2520509,Boutique
1123,34.04475373,-118.2527367,Clad Cavalier,34.04432104,-118.2523727,Men's Store
1124,34.04475373,-118.2527367,Ace Jewelry And Loan,34.045165,-118.252928,Jewelry Store
1125,34.04475373,-118.2527367,temple of visions,34.04419327,-118.2530975,Art Gallery
1126,34.04475373,-118.2527367,oLd MAn's lonChErA,34.044622,-118.252281,Food Truck
1127,34.04475373,-118.2527367,Studio Gronk,34.044283,-118.2529824,Art Gallery
1128,34.04475373,-118.2527367,Tortas Guadalajara,34.044502,-118.253531,American Restaurant
1129,34.04475373,-118.2527367,Dipped in Chocolate La,34.045122,-118.251286,Food
1130,34.04475373,-118.2527367,Paragon Parking,34.04440217,-118.2526309,Parking
1131,34.04475373,-118.2527367,"Dr. Boris Mayzels, Chiropractor",34.04510498,-118.2528305,Chiropractor
1132,34.04475373,-118.2527367,The Perrytel,34.0454548,-118.2524996,Residential Building (Apartment / Condo)
1133,34.04475373,-118.2527367,On Spring St. Smoking!,34.04499901,-118.2524025,Other Great Outdoors
1134,34.00790374,-118.259037,Delicious at The Dunbar,34.0068476,-118.256696,Southern / Soul Food Restaurant
1135,34.00790374,-118.259037,Juane's Barber Shop,34.00789826,-118.2563916,Salon / Barbershop
1136,34.00790374,-118.259037,Wadsworth Elementary School,34.009903,-118.25816,Elementary School
1137,34.00790374,-118.259037,Phillips Temple C.M.E. Church,34.006021,-118.258415,Church
1138,34.00790374,-118.259037,Harmony Elementary School,34.00716946,-118.2603968,Elementary School
1139,34.00790374,-118.259037,Super Tortas,34.00926394,-118.2567994,Mexican Restaurant
1140,34.00790374,-118.259037,Central Jazz Park,34.00680467,-118.2563997,Park
1141,34.00790374,-118.259037,Metro by T-Mobile,34.00377584,-118.2580745,Mobile Phone Shop
1142,34.00790374,-118.259037,Metro by T-Mobile,34.01153823,-118.2650366,Mobile Phone Shop
1143,34.00790374,-118.259037,ARCO,34.14564896,-118.1376877,Gas Station
1144,34.00790374,-118.259037,Dollar Tree,34.00759542,-118.2563711,Discount Store
1145,34.00790374,-118.259037,McDonald's,34.01053727,-118.2569028,Fast Food Restaurant
1146,34.00790374,-118.259037,Las Alondras Bakery,34.008558,-118.256264,Bakery
1147,34.00790374,-118.259037,AutoZone Auto Parts,34.00463383,-118.2568776,Automotive Shop
1148,34.00790374,-118.259037,Family Farm Market,34.00519139,-118.2559903,Restaurant
1149,34.00790374,-118.259037,Iglesia Jesucristo Es El Camino,34.01257082,-118.2570564,Church
1150,34.00790374,-118.259037,dd's DISCOUNTS,34.00531292,-118.25649,Department Store
1151,34.00790374,-118.259037,Los Angeles Public Library - Vernon - Leon H. Washington Jr. Memorial,34.002611,-118.256087,Library
